[
    {
        "address": "Warszawa, Ursynów, Pięciolinii",
        "district": "Warszawa, Ursynów",
        "id": "528665418",
        "latitude": 52.157240099999996,
        "link": "https://www.olx.pl/oferta/sprzedam-mieszkanie-2-pokojowe-metro-ursynow-CID3-IDzMe1A.html#343ed7b49d",
        "longitude": 21.024343400000003,
        "precise": false,
        "title": "Sprzedam mieszkanie 2-pokojowe Metro Ursynów"
    },
    {
        "address": null,
        "district": "Warszawa, Praga-Południe",
        "id": "543285558",
        "link": "https://www.olx.pl/oferta/mieszkanie-dla-rodziny-CID3-IDALzoi.html#343ed7b49d;promoted",
        "title": "Mieszkanie dla rodziny"
    },
    {
        "address": "Warszawa, Praga-Południe, ul. Siennicka",
        "district": "Warszawa, Praga-Południe",
        "id": "543287963",
        "latitude": 52.249695800000005,
        "link": "https://www.otodom.pl/oferta/trzypokojowe-mieszkanie-wsrod-zieleni-ID41zky.html?",
        "longitude": 21.078326,
        "precise": false,
        "title": "Trzypokojowe mieszkanie wśród zieleni"
    },
    {
        "address": "Warszawa, Mokotów, ul. Domaniewska 35",
        "district": "Warszawa, Mokotów",
        "id": "543319371",
        "latitude": 52.1831139,
        "link": "https://www.otodom.pl/oferta/mokotow-41-m2-2-pok-k-galerii-mokotow-2001r-ID41zhj.html?",
        "longitude": 21.008989,
        "precise": true,
        "title": "Mokotów, 41 m2, 2-pok., k.Galerii Mokotów, 2001r."
    },
    {
        "address": "Warszawa, Praga-Północ, ul. Siedlecka",
        "district": "Warszawa, Praga-Północ",
        "id": "543497304",
        "latitude": 52.258957300000006,
        "link": "https://www.otodom.pl/oferta/praga-polnoc-piekne-mieszkanie-45-mkw-w-kamenicy-ID41Adh.html?",
        "longitude": 21.058185299999998,
        "precise": false,
        "title": "Praga północ piękne mieszkanie 45 mkw w kamenicy!!"
    }
]