[
    {
        "address": "Wola,Warszawa, Grodkowskiej ",
        "district": "Wola,Warszawa",
        "id": "452085110",
        "latitude": 52.2423651,
        "link": "https://www.gumtree.pl/a-mieszkania-i-domy-sprzedam-i-kupie/wola/mieszkanie-42-87m-2-pokoje-przy-ul-grodkowskiej-wola-park/1004520851100910748373109",
        "longitude": 20.924878800000002,
        "precise": false,
        "title": "Mieszkanie 42,87m, 2 pokoje przy ul. Grodkowskiej (Wola Park)"
    },
    {
        "address": "Ursynów,Warszawa, Nowoursynowska 139 ",
        "district": "Ursynów,Warszawa",
        "id": "516211598",
        "latitude": 52.1504163,
        "link": "https://www.gumtree.pl/a-mieszkania-i-domy-sprzedam-i-kupie/ursynow/ursynow-48-m-+-typu-studio-bezposrednio/1005162115980911362780809",
        "longitude": 21.059612,
        "precise": true,
        "title": "URSYNÓW – 48 m - typu studio – bezpośrednio !!!"
    },
    {
        "address": "Mokotów,Warszawa,  ul.Rzymowskiego",
        "district": "Mokotów,Warszawa",
        "id": "516497001",
        "latitude": 52.1706548,
        "link": "https://www.gumtree.pl/a-mieszkania-i-domy-sprzedam-i-kupie/mokotow/sloneczne-2-pokojowe-mieszkanie-z-aneksem-kuchennym-przy-galerii-mokotow/1005164970010912123364609",
        "longitude": 21.0094101,
        "precise": false,
        "title": "Słoneczne 2 pokojowe mieszkanie z aneksem kuchennym przy Galerii Mokotów"
    },
    {
        "address": "Ochota,Warszawa, Wiślicka 3",
        "district": "Ochota,Warszawa",
        "id": "516696866",
        "latitude": 52.2033259,
        "link": "https://www.gumtree.pl/a-mieszkania-i-domy-sprzedam-i-kupie/ochota/3-pokojowe-mieszkanie-bezposrednio-ochota/1005166968660912406722009",
        "longitude": 20.977487,
        "precise": true,
        "title": "3 pokojowe Mieszkanie BEZPOŚREDNIO Ochota"
    },
    {
        "address": null,
        "district": "Śródmieście,Warszawa",
        "id": "516942989",
        "link": "https://www.gumtree.pl/a-mieszkania-i-domy-sprzedam-i-kupie/srodmiescie/do-remontu-bezposrednio/1005169429890910536142809",
        "title": "Do remontu/bezpośrednio "
    }
]