[
    {
        "address": null,
        "district": "Warszawa, Mokotów",
        "id": "545013807",
        "link": "https://www.olx.pl/oferta/kawalerka-mokotow-31m-marsylska-CID3-IDASOZh.html#205b506406",
        "title": "Kawalerka Mokotów 31m Marsylska"
    },
    {
        "address": "Warszawa, Praga-Południe, ul. Kinowa",
        "district": "Warszawa, Praga-Południe",
        "id": "545252613",
        "latitude": 52.240341199999996,
        "link": "https://www.otodom.pl/oferta/bezposrednio-kawalerka-32m2-10min-do-centum-ID3Y6ok.html?",
        "longitude": 21.074350499999998,
        "precise": false,
        "title": "BEZPOŚREDNIO! Kawalerka 32m2, 10min do Centum"
    },
    {
        "address": "Warszawa, Targówek, Bardowskiego\r",
        "district": "Warszawa, Targówek",
        "id": "545387351",
        "latitude": 52.2725771,
        "link": "https://www.otodom.pl/oferta/osiedle-wilno-jednopokojowe-garaz-schowek-ID41uOC.html?",
        "longitude": 21.0929395,
        "precise": false,
        "title": "Osiedle Wilno, jednopokojowe, garaż + schowek"
    },
    {
        "address": "Warszawa, Targówek, Krasiczyńska",
        "district": "Warszawa, Targówek",
        "id": "545754895",
        "latitude": 52.297009400000015,
        "link": "https://www.olx.pl/oferta/kawalerka-do-zamieszkania-od-zaraz-CID3-IDAWWMj.html#205b506406;promoted",
        "longitude": 21.0461644,
        "precise": false,
        "title": "Kawalerka do zamieszkania od zaraz"
    },
    {
        "address": "Warszawa, Wola, Obozowa",
        "district": "Warszawa, Wola",
        "id": "545895308",
        "latitude": 52.2477813,
        "link": "https://www.olx.pl/oferta/mieszkanie-37-5-m2-kolo-ul-obozowa-CID3-IDAVvj2.html#205b506406",
        "longitude": 20.9551336,
        "precise": false,
        "title": "mieszkanie 37.5 m2 KOŁO ul.Obozowa"
    },
    {
        "address": "Warszawa, Wola, Kasprzaka ",
        "district": "Warszawa, Wola",
        "id": "546092115",
        "latitude": 52.2283292,
        "link": "https://www.olx.pl/oferta/inwestycja-apartament-klima-widok-na-centrum-CID3-IDAXlwl.html#205b506406",
        "longitude": 20.9593114,
        "precise": false,
        "title": "INWESTYCJA, apartament, KLIMA, widok na Centrum"
    },
    {
        "address": "Warszawa, Wola, Kasprzaka ",
        "district": "Warszawa, Wola",
        "id": "546092846",
        "latitude": 52.2280292,
        "link": "https://www.olx.pl/oferta/inwestycja-apartament-klima-widok-na-centrum-CID3-IDAXlH8.html#205b506406",
        "longitude": 20.958911399999998,
        "precise": false,
        "title": "INWESTYCJA, apartament, KLIMA, widok na Centrum"
    },
    {
        "address": "Warszawa, Targówek, Wysockiego",
        "district": "Warszawa, Targówek",
        "id": "546274384",
        "latitude": 52.2882963,
        "link": "https://www.olx.pl/oferta/ladna-przestronna-kawalerka-na-targowku-CID3-IDAY6Wa.html#205b506406",
        "longitude": 21.0214648,
        "precise": false,
        "title": "Ładna, przestronna kawalerka na Targówku"
    },
    {
        "address": "Warszawa, Praga-Północ, ul. Białostocka",
        "district": "Warszawa, Praga-Północ",
        "id": "546702872",
        "latitude": 52.256808099999986,
        "link": "https://www.otodom.pl/oferta/kawalerka-w-niskim-bloku-z-2001-r-blisko-metra-ID3jYP0.html?",
        "longitude": 21.0441716,
        "precise": false,
        "title": "Kawalerka w niskim bloku z 2001 r. blisko metra"
    },
    {
        "address": "Warszawa, Ursynów, Hirszfelda",
        "district": "Warszawa, Ursynów",
        "id": "546912969",
        "latitude": 52.14308779999999,
        "link": "https://www.olx.pl/oferta/pokoj-z-kuchnia-CID3-IDB0N2W.html#205b506406;promoted",
        "longitude": 21.041856499999998,
        "precise": false,
        "title": "Pokój z kuchnią"
    }
]