[
    {
        "address": "Wspólna Droga",
        "district": "Praga Południe,Warszawa",
        "id": "516948768",
        "latitude": 52.2472903,
        "link": "https://www.gumtree.pl/a-mieszkania-i-domy-sprzedam-i-kupie/praga-poludnie/odstapie-partycypacje-tbs-praga-poludnie-ulica-wspolna-droga/1005169487680911494640309",
        "longitude": 21.097566699999998,
        "precise": false,
        "title": "odstąpię partycypację TBS Praga Południe ulica Wspólna Droga"
    },
    {
        "address": "Targówek,Warszawa, Pszczyńska 36a",
        "district": "Targówek,Warszawa",
        "id": "517140484",
        "latitude": 52.2886771,
        "link": "https://www.gumtree.pl/a-mieszkania-i-domy-sprzedam-i-kupie/targowek/mieszkanie-2-pokojowe-54-m-targowek-zacisze/1005171404840910524935709",
        "longitude": 21.0786119,
        "precise": true,
        "title": "Mieszkanie 2 pokojowe, 54 m², Targówek, Zacisze"
    },
    {
        "address": "Targówek,Warszawa, Radzymin",
        "district": "Targówek,Warszawa",
        "id": "517288401",
        "latitude": 52.2823819,
        "link": "https://www.gumtree.pl/a-mieszkania-i-domy-sprzedam-i-kupie/targowek/radzymin-+sypialnia-warszawy-ul-slowackiego-mieszkanie-2+pokojowe-40-m-1-pietro-+-bezposrednio/1005172884010911303775709",
        "longitude": 21.0654678,
        "precise": false,
        "title": "Radzymin -Sypialnia Warszawy, ul.Słowackiego Mieszkanie 2-pokojowe • 40 m² • 1 piętro - BEZPOŚREDNIO"
    },
    {
        "address": "Praga Północ,Warszawa, Środkowej",
        "district": "Praga Północ,Warszawa",
        "id": "517291451",
        "latitude": 52.261403,
        "link": "https://www.gumtree.pl/a-mieszkania-i-domy-sprzedam-i-kupie/praga-polnoc/sprzedam-dwa-pokoje-38-m2-przy-metrze-szwedzka/1005172914510910488151009",
        "longitude": 21.0401681,
        "precise": false,
        "title": "Sprzedam dwa pokoje 38 m2 przy Metrze Szwedzka"
    },
    {
        "address": "Wola,Warszawa, Erazma Ciołka 5",
        "district": "Wola,Warszawa",
        "id": "517567098",
        "latitude": 52.2399172,
        "link": "https://www.gumtree.pl/a-mieszkania-i-domy-sprzedam-i-kupie/wola/2-pokoje-40m2-na-woli-przy-samym-metrze-bezposrednio/1005175670980910505078909",
        "longitude": 20.945556,
        "precise": true,
        "title": "2 Pokoje 40m2 na Woli przy samym Metrze Bezpośrednio"
    },
    {
        "address": "Wola,Warszawa, Batalionu AK Pięść",
        "district": "Wola,Warszawa",
        "id": "517578415",
        "latitude": 52.2411185,
        "link": "https://www.gumtree.pl/a-mieszkania-i-domy-sprzedam-i-kupie/wola/bezposrednio-2pok-37-5m2-metro-ks-janusza/1005175784150911455642909",
        "longitude": 20.9473111,
        "precise": false,
        "title": "BEZPOŚREDNIO 2pok 37,5m2 METRO KS JANUSZA"
    },
    {
        "address": null,
        "district": "Mokotów,Warszawa",
        "id": "517612804",
        "link": "https://www.gumtree.pl/a-mieszkania-i-domy-sprzedam-i-kupie/mokotow/mokotow-2+pokojowe+metro/1005176128040910744063909",
        "title": "Mokotów 2-pokojowe-Metro"
    },
    {
        "address": "Śródmieście,Warszawa, Erazma Ciołka 5",
        "district": "Śródmieście,Warszawa",
        "id": "517613735",
        "latitude": 52.2399172,
        "link": "https://www.gumtree.pl/a-mieszkania-i-domy-sprzedam-i-kupie/srodmiescie/2-pokoje-40m2-na-woli-przy-samym-metrze-bezposrednio/1005176137350910505078909",
        "longitude": 20.945556,
        "precise": true,
        "title": "2 Pokoje 40m2 na Woli przy samym Metrze Bezpośrednio"
    },
    {
        "address": "Targówek,Warszawa, Wyszogrodzkiej",
        "district": "Targówek,Warszawa",
        "id": "517728607",
        "latitude": 52.2887531,
        "link": "https://www.gumtree.pl/a-mieszkania-i-domy-sprzedam-i-kupie/targowek/okazja-bezposrednio-3-pokoje-na-targowku-ul-wyszogrodzka/1005177286070911477800109",
        "longitude": 21.035901799999998,
        "precise": false,
        "title": "Okazja bezpośrednio 3 pokoje na Targówku, ul.Wyszogrodzka"
    }
]