[
    {
        "address": "Warszawa, Bielany, Broniewskiego 61",
        "district": "Warszawa, Bielany",
        "id": "521691910",
        "latitude": 52.2693769,
        "link": "https://www.olx.pl/oferta/mieszkanie-warszawa-broniewskiego-2-pokoje-osobna-kuchnia-do-remontu-CID3-IDziXTE.html#343ed7b49d",
        "longitude": 20.9511036,
        "precise": true,
        "title": "Mieszkanie Warszawa Broniewskiego, 2 pokoje ,osobna kuchnia do remontu"
    },
    {
        "address": "Warszawa, Targówek, Chodecka",
        "district": "Warszawa, Targówek",
        "id": "534871711",
        "latitude": 52.292401500000004,
        "link": "https://www.otodom.pl/oferta/brodno-ul-chodecka-przy-parku-tylko-za-gotowke-ID40THS.html?",
        "longitude": 21.042387199999997,
        "precise": false,
        "title": "BRÓDNO ul.Chodecka przy parku- TYLKO ZA GOTÓWKĘ!!!"
    },
    {
        "address": "Warszawa, Targówek, ul. Pszczyńska",
        "district": "Warszawa, Targówek",
        "id": "535284187",
        "latitude": 52.2885763,
        "link": "https://www.otodom.pl/oferta/mieszkanie-2-pokojowe-54-m-targowek-zacisze-ID40VAb.html?",
        "longitude": 21.0783924,
        "precise": false,
        "title": "Mieszkanie 2 pokojowe, 54 m², Targówek, Zacisze"
    },
    {
        "address": null,
        "district": "Warszawa, Mokotów",
        "id": "535315398",
        "link": "https://www.olx.pl/oferta/mieszkanie-52-m-dolny-mokotow-2-pokoje-kuchnia-CID3-IDAe7Zk.html#343ed7b49d",
        "title": "Mieszkanie, 52 m, Dolny Mokotów, 2 pokoje + kuchnia"
    },
    {
        "address": "Warszawa, Ochota, Stara ",
        "district": "Warszawa, Ochota",
        "id": "535493051",
        "latitude": 52.21765340000001,
        "link": "https://www.otodom.pl/oferta/mieszkanie-2-pokoje-stara-ochota-bezposrednio-ID40Xv0.html?",
        "longitude": 20.978652099999998,
        "precise": false,
        "title": "Mieszkanie 2-pokoje Stara Ochota bezpośrednio"
    }
]