[
    {
        "address": "Praga Południe,Warszawa, warszawa ",
        "district": "Praga Południe,Warszawa",
        "id": "545844230",
        "latitude": 52.2423808,
        "link": "https://www.gumtree.pl/a-mieszkania-i-domy-sprzedam-i-kupie/praga-poludnie/przestronne-dwupokojowe-mieszkanie-z-oddzielna-widna-kuchnia-oraz-garderoba/1005458442300910523711009",
        "longitude": 21.0846602,
        "precise": false,
        "title": "Przestronne dwupokojowe mieszkanie z oddzielną widną kuchnią oraz garderobą"
    },
    {
        "address": "Praga Południe,Warszawa, Siennicka 38 m 34",
        "district": "Praga Południe,Warszawa",
        "id": "545943631",
        "latitude": 52.2506178,
        "link": "https://www.gumtree.pl/a-mieszkania-i-domy-sprzedam-i-kupie/praga-poludnie/mieszkanie-dla-rodziny/1005459436310912436855609",
        "longitude": 21.0777709,
        "precise": true,
        "title": "Mieszkanie dla rodziny"
    },
    {
        "address": "Praga Południe,Warszawa, Plowiecka",
        "district": "Praga Południe,Warszawa",
        "id": "546009961",
        "latitude": 52.2341938,
        "link": "https://www.gumtree.pl/a-mieszkania-i-domy-sprzedam-i-kupie/praga-poludnie/dwupokojowe-mieszkanie-nowe-budownictwo-44-m2/1005460099610910530674909",
        "longitude": 21.128928900000002,
        "precise": false,
        "title": "Dwupokojowe mieszkanie nowe budownictwo 44 m2"
    },
    {
        "address": null,
        "district": "Targówek,Warszawa",
        "id": "546053500",
        "link": "https://www.gumtree.pl/a-mieszkania-i-domy-sprzedam-i-kupie/targowek/sprzedam-mieszkanie-zamienie-na-dom/1005460535000911220940509",
        "title": " Sprzedam mieszkanie/zamienie na dom "
    },
    {
        "address": "Targówek,Warszawa, Stary Rynek25",
        "district": "Targówek,Warszawa",
        "id": "546172386",
        "latitude": 52.24958600000001,
        "link": "https://www.gumtree.pl/a-mieszkania-i-domy-sprzedam-i-kupie/targowek/sprzedam-mieszkanie-w-radzyminie/1005461723860910658543909",
        "longitude": 21.011553,
        "precise": true,
        "title": "Sprzedam mieszkanie w Radzyminie"
    }
]