[
    {
        "address": "Ochota,Warszawa, Sąchocka ",
        "district": "Ochota,Warszawa",
        "id": "549710635",
        "latitude": 52.198186400000004,
        "link": "https://www.gumtree.pl/a-mieszkania-i-domy-sprzedam-i-kupie/ochota/tbs-warszawa-praga-pld/1005497106350910537512709",
        "longitude": 20.9735158,
        "precise": false,
        "title": "TBS Warszawa Praga Płd."
    },
    {
        "address": "Mokotów,Warszawa,   ul. Zwierzyniecka 13",
        "district": "Mokotów,Warszawa",
        "id": "549783562",
        "latitude": 52.21026990000001,
        "link": "https://www.gumtree.pl/a-mieszkania-i-domy-sprzedam-i-kupie/mokotow/swietnie-skomunikowane-mieszkanie-na-sprzedaz/1005497835620911310851009",
        "longitude": 21.0500518,
        "precise": true,
        "title": "Świetnie skomunikowane mieszkanie na sprzedaż!"
    },
    {
        "address": "Mokotów,Warszawa, Bokserska",
        "district": "Mokotów,Warszawa",
        "id": "550007154",
        "latitude": 52.1699334,
        "link": "https://www.gumtree.pl/a-mieszkania-i-domy-sprzedam-i-kupie/mokotow/bokserska-3-pokoje-dobra-inwestycja/1005500071540912439632809",
        "longitude": 20.9989089,
        "precise": false,
        "title": "Bokserska, 3 pokoje, dobra inwestycja"
    },
    {
        "address": "Targówek,Warszawa, Suwalska",
        "district": "Targówek,Warszawa",
        "id": "550217462",
        "latitude": 52.295247100000005,
        "link": "https://www.gumtree.pl/a-mieszkania-i-domy-sprzedam-i-kupie/targowek/sprzedam-mieszkanie-zamienie-na-dom/1005502174620911220940509",
        "longitude": 21.034123299999997,
        "precise": false,
        "title": " Sprzedam mieszkanie/zamienie na dom "
    },
    {
        "address": null,
        "district": "Targówek,Warszawa",
        "id": "550333875",
        "link": "https://www.gumtree.pl/a-mieszkania-i-domy-sprzedam-i-kupie/targowek/przygotuj-sie-na-nadchodzacy-kryzys-mieszkanie-tuz-przy-metrze/1005503338750911398935909",
        "title": "Przygotuj się na nadchodzący kryzys.Mieszkanie tuż przy metrze"
    },
    {
        "address": "Mokotów,Warszawa, Braci Pillatich",
        "district": "Mokotów,Warszawa",
        "id": "550595224",
        "latitude": 52.200251800000004,
        "link": "https://www.gumtree.pl/a-mieszkania-i-domy-sprzedam-i-kupie/mokotow/3-pokojowe-mieszkanie-na-inwestycje-+-47-m2/1005505952240910657363109",
        "longitude": 21.0342124,
        "precise": false,
        "title": "3 pokojowe mieszkanie na inwestycję  - 47 m2"
    }
]