[
    {
        "address": "Warszawa, Praga-Południe, Witolińska ",
        "district": "Warszawa, Praga-Południe",
        "id": "541172728",
        "latitude": 52.2397062,
        "link": "https://www.olx.pl/oferta/sprzedam-mieszkanie-CID3-IDACHKo.html#343ed7b49d",
        "longitude": 21.111408500000003,
        "precise": false,
        "title": "Sprzedam mieszkanie"
    },
    {
        "address": "Warszawa, Praga-Południe, ul. Osowska",
        "district": "Warszawa, Praga-Południe",
        "id": "541367375",
        "latitude": 52.2461748,
        "link": "https://www.otodom.pl/oferta/przestronne-2-pokojowe-mieszkanie-na-ul-osowskiej-ID41pw5.html?",
        "longitude": 21.103968000000002,
        "precise": false,
        "title": "Przestronne 2-pokojowe mieszkanie na ul. Osowskiej"
    },
    {
        "address": null,
        "district": "Warszawa, Śródmieście",
        "id": "541405599",
        "link": "https://www.otodom.pl/oferta/mieszkanie-w-biznesowym-centrum-warszawy-ID41qh3.html?",
        "title": "Mieszkanie w biznesowym centrum Warszawy"
    },
    {
        "address": "Warszawa, Praga-Południe, ul. Międzynarodowa",
        "district": "Warszawa, Praga-Południe",
        "id": "541450641",
        "latitude": 52.23883369999999,
        "link": "https://www.otodom.pl/oferta/sprzedam-bezposrednio-warszawa-ul-miedzynarodowa-ID41qsh.html?",
        "longitude": 21.0641066,
        "precise": false,
        "title": "Sprzedam bezpośrednio Warszawa ul. Międzynarodowa"
    },
    {
        "address": "Warszawa, Bielany, Magiera",
        "district": "Warszawa, Bielany",
        "id": "541517664",
        "latitude": 52.2727525,
        "link": "https://www.olx.pl/oferta/trzypokojowe-mieszkanie-na-bielanach-CID3-IDAE9tS.html#343ed7b49d",
        "longitude": 20.9501262,
        "precise": false,
        "title": "Trzypokojowe mieszkanie na Bielanach"
    },
    {
        "address": "Warszawa, Praga-Południe, Nasielskiej 36",
        "district": "Warszawa, Praga-Południe",
        "id": "541527629",
        "latitude": 52.2477282,
        "link": "https://www.olx.pl/oferta/mieszkanie-tbs-CID3-IDAEc4B.html#343ed7b49d;promoted",
        "longitude": 21.0993006,
        "precise": true,
        "title": "Mieszkanie TBS"
    },
    {
        "address": null,
        "district": "Warszawa, Żoliborz",
        "id": "541548471",
        "link": "https://www.olx.pl/oferta/sprzedam-mieszkanie-na-bielanach-bezposrednio-CID3-IDAEhuL.html#343ed7b49d",
        "title": "Sprzedam mieszkanie na Bielanach BEZPOŚREDNIO"
    }
]