[
    {
        "address": "Warszawa, Wola, Ringelbluma ",
        "district": "Warszawa, Wola",
        "id": "538768932",
        "latitude": 52.2456837,
        "link": "https://www.olx.pl/oferta/2-pokoje-na-woli-przy-parku-moczydlo-51m2-CID3-IDAsCpu.html#21aaa1c267",
        "longitude": 20.9496728,
        "precise": false,
        "title": "2 pokoje na Woli przy Parku Moczydło 51m2"
    },
    {
        "address": null,
        "district": "Warszawa, Mokotów",
        "id": "538979732",
        "link": "https://www.olx.pl/oferta/cybernetyki-15-2-pokoje-klucze-we-wrzesniu-cesja-CID3-IDAtwfu.html#7226bf74b5;promoted",
        "title": "Cybernetyki 15, 2 pokoje, klucze we wrześniu! Cesja"
    },
    {
        "address": "Warszawa, Praga-Północ, Ząbkowskiej",
        "district": "Warszawa, Praga-Północ",
        "id": "539803128",
        "latitude": 52.2542427,
        "link": "https://www.olx.pl/oferta/mieszkanie-38m2-praga-polnoc-2-pokoje-CID3-IDAvXs4.html#b24cef3d9e",
        "longitude": 21.044310000000003,
        "precise": false,
        "title": "Mieszkanie 38m2 Praga Północ - 2 pokoje"
    },
    {
        "address": null,
        "district": "Warszawa, Targówek",
        "id": "539803616",
        "link": "https://www.olx.pl/oferta/sprzedam-przytulne-mieszkanie-50-m2-w-zielonej-dzielnicy-targowek-CID3-IDAvXzV.html#b24cef3d9e",
        "title": "Sprzedam przytulne mieszkanie 50 m2 w zielonej dzielnicy Targówek"
    },
    {
        "address": "Warszawa, Mokotów, ul. Cybernetyki",
        "district": "Warszawa, Mokotów",
        "id": "539900616",
        "latitude": 52.176921,
        "link": "https://www.otodom.pl/oferta/cybernetyki-41-25m2-na-grudzien-2019r-promo-ID41is1.html?",
        "longitude": 20.9932768,
        "precise": false,
        "title": "Cybernetyki - 41,25m2 na grudzień 2019r. PROMO"
    },
    {
        "address": "Warszawa, Bielany, Kasprowicza 30",
        "district": "Warszawa, Bielany",
        "id": "539907381",
        "latitude": 52.27942059999999,
        "link": "https://www.olx.pl/oferta/sprzedam-mieszkanie-warszawa-dzielnica-bielany-super-lokalizacja-me-CID3-IDAxozz.html#343ed7b49d;promoted",
        "longitude": 20.9554711,
        "precise": true,
        "title": "Sprzedam mieszkanie - Warszawa,dzielnica Bielany, super lokalizacja ME"
    },
    {
        "address": null,
        "district": "Warszawa, Targówek",
        "id": "539956099",
        "link": "https://www.olx.pl/oferta/spokojnie-i-przytulne-mieszkanie-na-targowku-47m2-CID3-IDAxBfl.html#343ed7b49d",
        "title": "Spokojnie i przytulne mieszkanie na Targówku 47m2"
    },
    {
        "address": null,
        "district": "Warszawa, Targówek",
        "id": "539971674",
        "link": "https://www.olx.pl/oferta/mieszkanie-targowek-zamiejska-ogrodek-CID3-IDAxFiy.html#343ed7b49d",
        "title": "Mieszkanie Targówek Zamiejska ogródek"
    },
    {
        "address": null,
        "district": "Warszawa",
        "id": "539986427",
        "link": "https://www.otodom.pl/oferta/3-4-pokoje-inwestycja-metro-politechnika-15-min-ID41j6V.html?",
        "title": "3/4 pokoje inwestycja-METRO POLITECHNIKA 15 MIN"
    },
    {
        "address": "Warszawa, Mokotów, ul. Okęcka",
        "district": "Warszawa, Mokotów",
        "id": "539990911",
        "latitude": 52.188352200000004,
        "link": "https://www.otodom.pl/oferta/sprzedam-mieszkanie-na-mokotowie-wierzbno-ID41ja7.html?",
        "longitude": 21.0162332,
        "precise": false,
        "title": "Sprzedam Mieszkanie na Mokotowie (Wierzbno)"
    },
    {
        "address": "Warszawa, Targówek, Poborzańskiej",
        "district": "Warszawa, Targówek",
        "id": "540010982",
        "latitude": 52.289366199999996,
        "link": "https://www.olx.pl/oferta/mieszkanie-2-pokojowe-brodno-CID3-IDAxPvy.html#343ed7b49d",
        "longitude": 21.026303799999997,
        "precise": false,
        "title": "Mieszkanie 2 pokojowe- Bródno"
    },
    {
        "address": null,
        "district": "Warszawa, Praga-Południe",
        "id": "540038394",
        "link": "https://www.olx.pl/oferta/sprzedam-mieszkanie-dwu-pokojowe-CID3-IDAxVEG.html#343ed7b49d;promoted",
        "title": "Sprzedam Mieszkanie dwu pokojowe"
    }
]