[
    {
        "address": "Warszawa, Praga-Północ, ul. Wileńska",
        "district": "Warszawa, Praga-Północ",
        "id": "542832657",
        "latitude": 52.2584206,
        "link": "https://www.otodom.pl/oferta/do-remontu-60m-ul-wilenska-ciekawa-inwestycja-ID41x1F.html?",
        "longitude": 21.0401514,
        "precise": false,
        "title": "Do remontu 60m ul. Wileńska, ciekawa inwestycja"
    },
    {
        "address": "Warszawa, Mokotów, Etiudy Rewolucyjnej ",
        "district": "Warszawa, Mokotów",
        "id": "542865204",
        "latitude": 52.1916991,
        "link": "https://www.olx.pl/oferta/mieszkanie-mokotow-sprzedam-bezposrednio-CID3-IDAJO2o.html#343ed7b49d;promoted",
        "longitude": 20.99047,
        "precise": false,
        "title": "Mieszkanie Mokotow sprzedam bezposrednio"
    },
    {
        "address": "Warszawa, Mokotów, żywnego",
        "district": "Warszawa, Mokotów",
        "id": "542867665",
        "latitude": 52.1933036,
        "link": "https://www.otodom.pl/oferta/bezposrednio-3-pokojowe-mieszkanie-wierzbno-ID41xeR.html?",
        "longitude": 21.026519399999998,
        "precise": false,
        "title": "BEZPOŚREDNIO 3-pokojowe mieszkanie Wierzbno"
    },
    {
        "address": "Warszawa, Praga-Południe, ul. Wiatraczna",
        "district": "Warszawa, Praga-Południe",
        "id": "542880193",
        "latitude": 52.2526488,
        "link": "https://www.otodom.pl/oferta/sprzedam-mieszkanie-warszawa-ul-wiatraczna-ID41xhr.html?",
        "longitude": 21.085019,
        "precise": false,
        "title": "Sprzedam mieszkanie Warszawa ul. Wiatraczna"
    },
    {
        "address": "Warszawa, Praga-Południe, Jugosłowiańska",
        "district": "Warszawa, Praga-Południe",
        "id": "542921373",
        "latitude": 52.221726899999986,
        "link": "https://www.olx.pl/oferta/2-pokojowe-38-7m2-osiedle-adria-2012-goclaw-ul-jugoslowianska-CID3-IDAK2El.html#343ed7b49d;promoted",
        "longitude": 21.0968263,
        "precise": false,
        "title": "2 pokojowe 38,7m2 Osiedle ADRIA 2012 Gocław ul. Jugosłowiańska"
    },
    {
        "address": "Warszawa, Mokotów, Cieszyńskiej ",
        "district": "Warszawa, Mokotów",
        "id": "542927284",
        "latitude": 52.184469199999995,
        "link": "https://www.olx.pl/oferta/sprzedam-3-pok-mieszkanie-44m-metro-wilanowska-CID3-IDAK4bG.html#343ed7b49d",
        "longitude": 21.027380299999997,
        "precise": false,
        "title": "Sprzedam 3-pok.mieszkanie, 44m, Metro Wilanowska"
    },
    {
        "address": "Warszawa, Mokotów, ul. Juliana Bruna",
        "district": "Warszawa, Mokotów",
        "id": "542939735",
        "latitude": 52.209715,
        "link": "https://www.otodom.pl/oferta/pole-mokotowskie-mieszkanie-2-pokoje-ID41xzA.html?",
        "longitude": 21.0032389,
        "precise": false,
        "title": "Pole Mokotowskie mieszkanie 2 pokoje"
    },
    {
        "address": null,
        "district": "Warszawa, Bielany",
        "id": "542941770",
        "link": "https://www.olx.pl/oferta/3-pokojowe-mieszkanie-warszawa-bielany-200-m-od-stacji-metro-mlociny-CID3-IDAK7Xk.html#343ed7b49d",
        "title": "3-pokojowe mieszkanie, Warszawa Bielany, 200 m od stacji Metro Młociny"
    },
    {
        "address": null,
        "district": "Warszawa",
        "id": "542959524",
        "link": "https://www.otodom.pl/oferta/mieszkanie-2-pokojowe-53-5-m2-obroncow-tobruku-ID3Gg8g.html?",
        "title": "Mieszkanie 2 pokojowe 53.5 m2, Obrońców Tobruku"
    },
    {
        "address": "Warszawa, Praga-Południe, ul. Ludwika Mycielskiego",
        "district": "Warszawa, Praga-Południe",
        "id": "543078129",
        "latitude": 52.25128989999999,
        "link": "https://www.otodom.pl/oferta/praga-pld-2-pokoje-lata-50-te-do-remontu-ID41y5S.html?",
        "longitude": 21.0822872,
        "precise": false,
        "title": "Praga Płd, 2 pokoje, lata 50-te, do remontu"
    },
    {
        "address": "Warszawa, Mokotów, Bartłomieja",
        "district": "Warszawa, Mokotów",
        "id": "543108096",
        "latitude": 52.1689327,
        "link": "https://www.olx.pl/oferta/sprzedam-mieszkanie-47m2-3-pokoje-na-mokotowie-ul-bartlomieja-CID3-IDAKPe0.html#343ed7b49d",
        "longitude": 21.0072913,
        "precise": false,
        "title": "Sprzedam mieszkanie 47m2, 3 pokoje na Mokotowie, ul. Bartłomieja"
    },
    {
        "address": null,
        "district": "Warszawa",
        "id": "543110296",
        "link": "https://www.otodom.pl/oferta/test-ad-mieszkania-ID41ye5.html?",
        "title": "[Test Ad] Mieszkania"
    },
    {
        "address": null,
        "district": "Warszawa, Żoliborz",
        "id": "543114833",
        "link": "https://www.olx.pl/oferta/mieszkanie-na-zoliborzu-CID3-IDAKQYF.html#343ed7b49d",
        "title": "Mieszkanie na Żoliborzu"
    }
]