[
    {
        "address": "Targówek,Warszawa,  Wyszogrodzka 5",
        "district": "Targówek,Warszawa",
        "id": "538807228",
        "latitude": 52.28989,
        "link": "https://www.gumtree.pl/a-mieszkania-i-domy-sprzedam-i-kupie/targowek/mieszkanie-dwupokojowe-54-mkw-przy-parku-brodnowskim-bezposrednio/1005388072280912432261709",
        "longitude": 21.0326329,
        "precise": true,
        "title": "Mieszkanie dwupokojowe, 54 mkw, przy Parku Bródnowskim, BEZPOŚREDNIO"
    },
    {
        "address": "Wola,Warszawa, Karlińskiego",
        "district": "Wola,Warszawa",
        "id": "538831292",
        "latitude": 52.224027,
        "link": "https://www.gumtree.pl/a-mieszkania-i-domy-sprzedam-i-kupie/wola/ustawne-i-przestronne-2-pokoje-za-9270zl-m2-cesja-bez-pcc-taniej-niz-u-dewelopera-wola-gabriela/1005388312920910547339909",
        "longitude": 20.9340461,
        "precise": false,
        "title": " Ustawne i przestronne 2 pokoje za 9270zł/m2 Cesja bez PCC taniej niż u dewelopera Wola Gabriela "
    },
    {
        "address": null,
        "district": "Mokotów,Warszawa",
        "id": "538892083",
        "link": "https://www.gumtree.pl/a-mieszkania-i-domy-sprzedam-i-kupie/mokotow/pilnie-sprzedam-mieszkanie-na-mokotowie/1005388920830910984460209",
        "title": "Pilnie sprzedam mieszkanie na Mokotowie"
    },
    {
        "address": null,
        "district": "Mokotów,Warszawa",
        "id": "538908416",
        "link": "https://www.gumtree.pl/a-mieszkania-i-domy-sprzedam-i-kupie/mokotow/m2-mokotow-+-wierzbno/1005389084160910474226509",
        "title": "M2 Mokotów - Wierzbno "
    },
    {
        "address": "Bielany,Warszawa, Marymont",
        "district": "Bielany,Warszawa",
        "id": "538931632",
        "latitude": 52.2606,
        "link": "https://www.gumtree.pl/a-mieszkania-i-domy-sprzedam-i-kupie/bielany/mieszkanie-w-dobrej-lokalizacji/1005389316320912432094609",
        "longitude": 20.9502,
        "precise": false,
        "title": "Mieszkanie w dobrej lokalizacji."
    },
    {
        "address": "Wola,Warszawa, Olbrachta",
        "district": "Wola,Warszawa",
        "id": "538994686",
        "latitude": 52.2342003,
        "link": "https://www.gumtree.pl/a-mieszkania-i-domy-sprzedam-i-kupie/wola/miieszkanie-na-woli/1005389946860910521818109",
        "longitude": 20.929774899999998,
        "precise": false,
        "title": "Miieszkanie na Woli"
    },
    {
        "address": "Ochota,Warszawa, Sękocińska 20",
        "district": "Ochota,Warszawa",
        "id": "539131852",
        "latitude": 52.22070979999999,
        "link": "https://www.gumtree.pl/a-mieszkania-i-domy-sprzedam-i-kupie/ochota/mieszkanie-2-pokojowe-na-starej-ochocie-na-sprzedaz/1005391318520912432265209",
        "longitude": 20.9765327,
        "precise": true,
        "title": "mieszkanie 2 pokojowe na Starej Ochocie na sprzedaz"
    },
    {
        "address": "Mokotów,Warszawa, Konstancińska 7B ",
        "district": "Mokotów,Warszawa",
        "id": "539252758",
        "latitude": 52.186682,
        "link": "https://www.gumtree.pl/a-mieszkania-i-domy-sprzedam-i-kupie/mokotow/bezposrednio-2-pok-38-m2-konstancinska-mokotow-sadyba-best-mall/1005392527580910521552709",
        "longitude": 21.058003,
        "precise": true,
        "title": "Bezpośrednio 2 pok. 38 m2 Konstancińska / Mokotów / Sadyba Best Mall"
    },
    {
        "address": "Praga Północ,Warszawa, Siedlecka",
        "district": "Praga Północ,Warszawa",
        "id": "539802942",
        "latitude": 52.259757300000004,
        "link": "https://www.gumtree.pl/a-mieszkania-i-domy-sprzedam-i-kupie/praga-polnoc/do-sprzedania-38m2-ul-siedlecka-w-warszawie/1005398029420910470587509",
        "longitude": 21.058285299999998,
        "precise": false,
        "title": "DO SPRZEDANIA 38m2  ul. SIEDLECKA W WARSZAWIE"
    },
    {
        "address": "Praga Północ,Warszawa, Siedlecka",
        "district": "Praga Północ,Warszawa",
        "id": "539831808",
        "latitude": 52.2596573,
        "link": "https://www.gumtree.pl/a-mieszkania-i-domy-sprzedam-i-kupie/praga-polnoc/do-sprzedania-38m2-2+pokojowe-po-remoncie-ul-siedlecka-w-warszawie/1005398318080910470587509",
        "longitude": 21.058485299999997,
        "precise": false,
        "title": "DO SPRZEDANIA 38m2, 2-pokojowe  po remoncie ul. SIEDLECKA W WARSZAWIE"
    },
    {
        "address": "Targówek,Warszawa, Suwalskiej ",
        "district": "Targówek,Warszawa",
        "id": "539864306",
        "latitude": 52.295447100000004,
        "link": "https://www.gumtree.pl/a-mieszkania-i-domy-sprzedam-i-kupie/targowek/mieszkanie-3-pokoje-brodno-uregulowane-grunty-metro/1005398643060911486564009",
        "longitude": 21.0345233,
        "precise": false,
        "title": "Mieszkanie 3 pokoje Bródno uregulowane grunty metro"
    }
]