[
    {
        "address": "Targówek,Warszawa, ul. Krasnobrodzka",
        "district": "Targówek,Warszawa",
        "id": "514838280",
        "latitude": 52.3008355,
        "link": "https://www.gumtree.pl/a-mieszkania-i-domy-sprzedam-i-kupie/targowek/sprzedam-bezposrednio-3+pok-mieszkanie-56-m2-z-kw-ul-krasnobrodzka/1005148382800912416215509",
        "longitude": 21.041888099999998,
        "precise": false,
        "title": "Sprzedam bezpośrednio 3-pok. mieszkanie 56 m2 (z KW), ul. Krasnobrodzka"
    },
    {
        "address": "Praga Północ,Warszawa, Zaokopowej",
        "district": "Praga Północ,Warszawa",
        "id": "546993431",
        "latitude": 52.2588533,
        "link": "https://www.gumtree.pl/a-mieszkania-i-domy-sprzedam-i-kupie/praga-polnoc/mieszkanie-tbs-praga/1005469934310912437715009",
        "longitude": 21.03831,
        "precise": false,
        "title": "Mieszkanie TBS PRAGA"
    },
    {
        "address": "Bielany,Warszawa, Rudnickiego",
        "district": "Bielany,Warszawa",
        "id": "547111691",
        "latitude": 52.26804929999999,
        "link": "https://www.gumtree.pl/a-mieszkania-i-domy-sprzedam-i-kupie/bielany/tbs-warszawa-bielany-cesja-partycypacji/1005471116910912437877709",
        "longitude": 20.948472300000002,
        "precise": false,
        "title": "TBS Warszawa Bielany (cesja partycypacji)"
    },
    {
        "address": "Bielany,Warszawa, Rudnickiego",
        "district": "Bielany,Warszawa",
        "id": "547124471",
        "latitude": 52.26894929999999,
        "link": "https://www.gumtree.pl/a-mieszkania-i-domy-sprzedam-i-kupie/bielany/tbs-warszawa-bielany-cesja-partycypacji/1005471244710912437877709",
        "longitude": 20.9482723,
        "precise": false,
        "title": "TBS Warszawa Bielany (cesja partycypacji)"
    },
    {
        "address": "Praga Północ,Warszawa,  Al.Tysiąclecia",
        "district": "Praga Północ,Warszawa",
        "id": "547270832",
        "latitude": 52.25678159999999,
        "link": "https://www.gumtree.pl/a-mieszkania-i-domy-sprzedam-i-kupie/praga-polnoc/doskonale-zlokalizowane-al-tysiaclecia-38m-400tys-loggia-widok/1005472708320911445401309",
        "longitude": 21.0527672,
        "precise": false,
        "title": "Doskonale zlokalizowane Al. Tysiąclecia, 38m/ 400tys./ loggia/ widok"
    },
    {
        "address": "Targówek,Warszawa, Wyszogrodzka",
        "district": "Targówek,Warszawa",
        "id": "547455276",
        "latitude": 52.289453099999996,
        "link": "https://www.gumtree.pl/a-mieszkania-i-domy-sprzedam-i-kupie/targowek/targowek-+-ul-wyszogrodzka-metro-3-pok-balkon-park-po-remoncie-+397-tys/1005474552760910944401209",
        "longitude": 21.0356018,
        "precise": false,
        "title": "Targówek - ul. Wyszogrodzka, METRO! 3 pok., balkon, PARK, PO REMONCIE!!!-397 tys."
    },
    {
        "address": null,
        "district": "Bielany,Warszawa",
        "id": "547489588",
        "link": "https://www.gumtree.pl/a-mieszkania-i-domy-sprzedam-i-kupie/bielany/sliczne-mieszkanie-na-warszawskiej-chomiczowce/1005474895880912438453109",
        "title": "Śliczne mieszkanie na Warszawskiej Chomiczówce"
    },
    {
        "address": null,
        "district": "Praga Południe,Warszawa",
        "id": "547594292",
        "link": "https://www.gumtree.pl/a-mieszkania-i-domy-sprzedam-i-kupie/praga-poludnie/sprzedam-mieszkanie-port-praski-praga-polnoc-46m2/1005475942920912420954209",
        "title": "Sprzedam mieszkanie Port Praski Praga północ 46m2"
    },
    {
        "address": "Bielany,Warszawa, Żeromskiego Mieszkanie ",
        "district": "Bielany,Warszawa",
        "id": "547618898",
        "latitude": 52.27793659999999,
        "link": "https://www.gumtree.pl/a-mieszkania-i-domy-sprzedam-i-kupie/bielany/ul-zeromskiego+dwa-pokoje-bezposrednio/1005476188980910665922709",
        "longitude": 20.963569,
        "precise": false,
        "title": "ul.Żeromskiego-dwa pokoje bezpośrednio"
    },
    {
        "address": "Targówek,Warszawa,  ul.Wyszogrodzka 5",
        "district": "Targówek,Warszawa",
        "id": "547685769",
        "latitude": 52.28989,
        "link": "https://www.gumtree.pl/a-mieszkania-i-domy-sprzedam-i-kupie/targowek/3-pokoje-na-brodnie-przy-parku/1005476857690911456906109",
        "longitude": 21.0326329,
        "precise": true,
        "title": "3 pokoje na Bródnie przy Parku"
    },
    {
        "address": "Praga Południe,Warszawa, Ostrobramskiej 132",
        "district": "Praga Południe,Warszawa",
        "id": "547893822",
        "latitude": 52.23609330000001,
        "link": "https://www.gumtree.pl/a-mieszkania-i-domy-sprzedam-i-kupie/praga-poludnie/sprzedam-mieszkanie-pod-inwestycje-praga-centrum/1005478938220912424651809",
        "longitude": 21.0815685,
        "precise": true,
        "title": "Sprzedam mieszkanie pod inwestycję Praga Centrum "
    },
    {
        "address": "Targówek,Warszawa, Suwalska",
        "district": "Targówek,Warszawa",
        "id": "548340013",
        "latitude": 52.2953471,
        "link": "https://www.gumtree.pl/a-mieszkania-i-domy-sprzedam-i-kupie/targowek/sprzedam-mieszkanie-zamienie-na-dom/1005483400130911220940509",
        "longitude": 21.034323299999997,
        "precise": false,
        "title": " Sprzedam mieszkanie/zamienie na dom "
    },
    {
        "address": "Praga Północ,Warszawa, Stary rynek 25",
        "district": "Praga Północ,Warszawa",
        "id": "548369464",
        "latitude": 52.2497413,
        "link": "https://www.gumtree.pl/a-mieszkania-i-domy-sprzedam-i-kupie/praga-polnoc/zamienie-mieszkanie-2-pokojowe-w-radzyminie/1005483694640910658543909",
        "longitude": 21.0122417,
        "precise": true,
        "title": "Zamienię mieszkanie 2 pokojowe w Radzyminie"
    },
    {
        "address": "Ożarowska",
        "district": "Wola,Warszawa",
        "id": "548390599",
        "latitude": 52.2473448,
        "link": "https://www.gumtree.pl/a-mieszkania-i-domy-sprzedam-i-kupie/wola/ul-ozarowska-42m2-2-pietro-cegla-metro-ksiecia-janusza+417tys/1005483905990910944401209",
        "longitude": 20.950421799999997,
        "precise": false,
        "title": "ul. Ożarowska, 42m2,2 piętro,cegła,metro Księcia Janusza-417tys."
    },
    {
        "address": "Praga Południe,Warszawa, Grochowska 200",
        "district": "Praga Południe,Warszawa",
        "id": "548761740",
        "latitude": 52.2458979,
        "link": "https://www.gumtree.pl/a-mieszkania-i-domy-sprzedam-i-kupie/praga-poludnie/mieszkanie-49-90-m2-grochowska-200-rondo-witraczna-praga-poludnie-na-sprzedaz/1005487617400911468752209",
        "longitude": 21.0873759,
        "precise": true,
        "title": "Mieszkanie 49,90 M2 Grochowska 200, Rondo Witraczna, Praga Południe na sprzedaż"
    }
]