[
    {
        "address": "Warszawa, Mokotów, Pory 65",
        "district": "Warszawa, Mokotów",
        "id": "488346089",
        "latitude": 52.18492089999999,
        "link": "https://www.olx.pl/oferta/bezposrednio-sprzedam-mieszkanie-2-pokojowe-39-15m2-10-pietro-CID3-IDx337P.html#343ed7b49d;promoted",
        "longitude": 21.0439258,
        "precise": true,
        "title": "Bezpośrednio sprzedam mieszkanie 2-pokojowe - 39,15m2, 10 piętro"
    },
    {
        "address": "Warszawa, Praga-Południe, ul. gen. Tadeusza Bora-Komorowskiego",
        "district": "Warszawa, Praga-Południe",
        "id": "532969715",
        "latitude": 52.226143,
        "link": "https://www.otodom.pl/oferta/3-pokoje-parter-60m2-bezposrednio-ID40K3r.html?",
        "longitude": 21.0886829,
        "precise": false,
        "title": "3 pokoje parter 60m2 BEZPOŚREDNIO"
    },
    {
        "address": "Warszawa, Wola, Płocka ",
        "district": "Warszawa, Wola",
        "id": "532975505",
        "latitude": 52.236773899999996,
        "link": "https://www.olx.pl/oferta/sprzedam-bezposrednio-2-pokojowe-warszawa-wola-CID3-IDA4jh7.html#343ed7b49d",
        "longitude": 20.9652488,
        "precise": false,
        "title": "Sprzedam bezpośrednio 2-pokojowe Warszawa/Wola"
    },
    {
        "address": "Warszawa, Ursynów, Zmiany 6",
        "district": "Warszawa, Ursynów",
        "id": "533007667",
        "latitude": 52.1574032,
        "link": "https://www.olx.pl/oferta/mieszkanie-na-ursynowie-bezposrednio-CID3-IDA4rDR.html#343ed7b49d",
        "longitude": 21.0356577,
        "precise": true,
        "title": "Mieszkanie na Ursynowie - BEZPOŚREDNIO"
    },
    {
        "address": "Warszawa, Mokotów, wojciecha żywnego",
        "district": "Warszawa, Mokotów",
        "id": "533023128",
        "latitude": 52.1925036,
        "link": "https://www.otodom.pl/oferta/bezposrednio-3-pokojowe-mieszkanie-wierzbno-ID40KaD.html?",
        "longitude": 21.0263194,
        "precise": false,
        "title": "BEZPOŚREDNIO 3-pokojowe mieszkanie Wierzbno"
    },
    {
        "address": null,
        "district": "Warszawa, Mokotów",
        "id": "533041757",
        "link": "https://www.olx.pl/oferta/sprzedam-mieszkanie-CID3-IDA4AwH.html#343ed7b49d",
        "title": "sprzedam mieszkanie"
    }
]