[
    {
        "address": "Warszawa, Mokotów, Bonifacego ",
        "district": "Warszawa, Mokotów",
        "id": "539108476",
        "latitude": 52.183267,
        "link": "https://www.olx.pl/oferta/mieszkanie-39-m-2-stegny-warszawa-CID3-IDAu2K0.html#343ed7b49d;promoted",
        "longitude": 21.0584769,
        "precise": false,
        "title": "Mieszkanie 39 m 2 Stegny Warszawa"
    },
    {
        "address": "Warszawa, Targówek, Bródno",
        "district": "Warszawa, Targówek",
        "id": "539124706",
        "latitude": 52.2886301,
        "link": "https://www.otodom.pl/oferta/brodno-inwestycja-2-3-pokoje-przy-metrze-obok-park-ID41fis.html?",
        "longitude": 21.031664000000003,
        "precise": false,
        "title": "Bródno Inwestycja 2-3 Pokoje przy Metrze obok Park"
    },
    {
        "address": "Warszawa, Targówek, Rembielińskiej",
        "district": "Warszawa, Targówek",
        "id": "539124864",
        "latitude": 52.2903976,
        "link": "https://www.olx.pl/oferta/sprzedam-mieszkanie-57-5-m-tragowek-brodno-CID3-IDAu70k.html#343ed7b49d",
        "longitude": 21.0302266,
        "precise": false,
        "title": "Sprzedam mieszkanie 57,5 m, Tragówek Bródno"
    },
    {
        "address": "Warszawa, Bielany, ul. Wrzeciono",
        "district": "Warszawa, Bielany",
        "id": "539144751",
        "latitude": 52.29148639999999,
        "link": "https://www.otodom.pl/oferta/48m-ul-wrzeciono-niski-blok-z-balkonem-ID41fpR.html?",
        "longitude": 20.9406134,
        "precise": false,
        "title": "48m, ul. Wrzeciono, niski blok, z balkonem"
    },
    {
        "address": null,
        "district": "Warszawa, Śródmieście",
        "id": "539164543",
        "link": "https://www.olx.pl/oferta/sprzedam-partycypacje-tbs-CID3-IDAuhkj.html#343ed7b49d",
        "title": "Sprzedam partycypacje TBS"
    },
    {
        "address": "Warszawa, Ochota, ul. Racławicka 142",
        "district": "Warszawa, Ochota",
        "id": "539175272",
        "latitude": 52.19889800000001,
        "link": "https://www.otodom.pl/oferta/piekne-mieszkanie-na-ochocie-3-pokoje-ID41fDo.html?",
        "longitude": 20.9826529,
        "precise": true,
        "title": "Piękne mieszkanie na Ochocie - 3 pokoje"
    },
    {
        "address": "Warszawa, Praga-Południe, ul. Szaserów",
        "district": "Warszawa, Praga-Południe",
        "id": "539198548",
        "latitude": 52.247568,
        "link": "https://www.otodom.pl/oferta/bezposrednio-mieszkanie-przy-parku-ID41fR3.html?",
        "longitude": 21.102271799999997,
        "precise": false,
        "title": "bezpośrednio mieszkanie przy parku"
    }
]