[
    {
        "address": null,
        "district": "Warszawa, Włochy",
        "id": "533031069",
        "link": "https://www.olx.pl/oferta/mieszkanie-47-m-2-przytulne-w-spokojnej-zielonej-dzielnicy-wwa-wlochy-CID3-IDA4xJj.html#343ed7b49d",
        "title": "Mieszkanie 47 m 2, przytulne w spokojnej zielonej dzielnicy Wwa Włochy"
    },
    {
        "address": "Warszawa, Włochy, ul. Szczęsna",
        "district": "Warszawa, Włochy",
        "id": "533045032",
        "latitude": 52.210554399999985,
        "link": "https://www.otodom.pl/oferta/mieszkanie-47-m-2-w-spokojnej-dzielnicy-wlochy-ID40KdQ.html?",
        "longitude": 20.930947399999997,
        "precise": false,
        "title": "Mieszkanie 47 m 2, w spokojnej dzielnicy Włochy"
    },
    {
        "address": "Warszawa, Targówek, ul. Chodecka",
        "district": "Warszawa, Targówek",
        "id": "535569533",
        "latitude": 52.2928015,
        "link": "https://www.otodom.pl/oferta/targowek-brodno-chodecka-blisko-metra-ID40XU9.html?",
        "longitude": 21.041787199999998,
        "precise": false,
        "title": "Targówek, Bródno, Chodecka, blisko metra"
    },
    {
        "address": null,
        "district": "Warszawa, Praga-Północ",
        "id": "535600347",
        "link": "https://www.olx.pl/oferta/mieszkanie-2-pokojowe-po-czesciowym-remoncie-CID3-IDAfk7h.html#b24cef3d9e",
        "title": "mieszkanie 2-pokojowe po częściowym remoncie"
    },
    {
        "address": "Warszawa, Praga-Północ, ul. Kijowska",
        "district": "Warszawa, Praga-Północ",
        "id": "535633515",
        "latitude": 52.252927299999996,
        "link": "https://www.otodom.pl/oferta/sprzedam-mieszkanie-3-pokoje-ID3UMhe.html?",
        "longitude": 21.0490235,
        "precise": false,
        "title": "Sprzedam mieszkanie 3 pokoje"
    },
    {
        "address": "Warszawa, Targówek, Piotra Wysockiego\r",
        "district": "Warszawa, Targówek",
        "id": "535669157",
        "latitude": 52.2878963,
        "link": "https://www.olx.pl/oferta/sprzedam-mieszkanie-2-pokojowe-CID3-IDAfC17.html#343ed7b49d",
        "longitude": 21.0213648,
        "precise": false,
        "title": "sprzedam mieszkanie 2 pokojowe"
    },
    {
        "address": "Warszawa, Włochy, Dwudziestolatków",
        "district": "Warszawa, Włochy",
        "id": "535672512",
        "latitude": 52.19324499999999,
        "link": "https://www.olx.pl/oferta/sprzedam-mieszkanie-3-pokoje-CID3-IDAfCTe.html#343ed7b49d",
        "longitude": 20.9671607,
        "precise": false,
        "title": "Sprzedam mieszkanie 3 pokoje"
    },
    {
        "address": "Warszawa, Wola, Koło",
        "district": "Warszawa, Wola",
        "id": "535687898",
        "latitude": 52.2467604,
        "link": "https://www.otodom.pl/oferta/bezposrednio-2pok-37-5m2-metro-ks-janusza-ID40YfE.html?",
        "longitude": 20.9468105,
        "precise": false,
        "title": "BEZPOŚREDNIO 2pok. 37,5m2 METRO ks.Janusza"
    },
    {
        "address": null,
        "district": "Warszawa, Targówek",
        "id": "535716365",
        "link": "https://www.olx.pl/oferta/sprzedam-mieszkanie-43-m-CID3-IDAfOix.html#343ed7b49d",
        "title": "Sprzedam mieszkanie 43 m"
    },
    {
        "address": "Warszawa, Mokotów, Sardyńskiej ",
        "district": "Warszawa, Mokotów",
        "id": "535719737",
        "latitude": 52.1784978,
        "link": "https://www.olx.pl/oferta/mokotow-stegny-dwa-pokoje-wysoki-standard-bezposrednio-CID3-IDAfPaW.html#343ed7b49d",
        "longitude": 21.0534206,
        "precise": false,
        "title": "Mokotów - Stegny, dwa pokoje wysoki standard BEZPOŚREDNIO"
    },
    {
        "address": "Warszawa, Ursynów, ul. Dereniowa",
        "district": "Warszawa, Ursynów",
        "id": "535777057",
        "latitude": 52.1480441,
        "link": "https://www.otodom.pl/oferta/ursynow-2-pok-47-4-m2-miejsce-garazowe-w-cenie-ID40Yqz.html?",
        "longitude": 21.0423291,
        "precise": false,
        "title": "Ursynów 2 pok.47,4 m2 + miejsce garażowe w cenie"
    }
]