[
    {
        "address": "Ursynów,Warszawa, Nowoursynowska 139 ",
        "district": "Ursynów,Warszawa",
        "id": "507269626",
        "latitude": 52.1504163,
        "link": "https://www.gumtree.pl/a-mieszkania-i-domy-sprzedam-i-kupie/ursynow/ursynow-48-m-+-osiedle-strzezone-bezposrednio/1005072696260911362780809",
        "longitude": 21.059612,
        "precise": true,
        "title": "URSYNÓW – 48 m - osiedle strzeżone – bezpośrednio !!!"
    },
    {
        "address": "Targówek,Warszawa, Janowieckiej ",
        "district": "Targówek,Warszawa",
        "id": "507458486",
        "latitude": 52.2800265,
        "link": "https://www.gumtree.pl/a-mieszkania-i-domy-sprzedam-i-kupie/targowek/dom-mieszkalny-na-dzialce-letniskowej-targowek/1005074584860910470683109",
        "longitude": 21.095934200000002,
        "precise": false,
        "title": "DOM MIESZKALNY NA DZIAŁCE LETNISKOWEJ TARGÓWEK "
    },
    {
        "address": "Wola,Warszawa, WIERZYNKA WARSZAWA",
        "district": "Wola,Warszawa",
        "id": "507586973",
        "latitude": 52.2417865,
        "link": "https://www.gumtree.pl/a-mieszkania-i-domy-sprzedam-i-kupie/wola/wierzynka+wola+w-poblizu-mlynarskiej+48m+3-pokoje+1-pietro+loggia/1005075869730910470678209",
        "longitude": 20.968874699999997,
        "precise": false,
        "title": "WIERZYNKA-WOLA-W POBLIŻU MŁYNARSKIEJ-48M-3 POKOJE-1 PIĘTRO-LOGGIA"
    },
    {
        "address": null,
        "district": "Mokotów,Warszawa",
        "id": "507648997",
        "link": "https://www.gumtree.pl/a-mieszkania-i-domy-sprzedam-i-kupie/mokotow/metro-wilanowska-2-oddzielne-pokoje-super-lokalizacja-swietny-widok/1005076489970910551547309",
        "title": "Metro Wilanowska, 2 oddzielne pokoje, super lokalizacja, świetny widok"
    },
    {
        "address": "Włochy,Warszawa, Chrościckiego 129",
        "district": "Włochy,Warszawa",
        "id": "507964442",
        "latitude": 52.2086832,
        "link": "https://www.gumtree.pl/a-mieszkania-i-domy-sprzedam-i-kupie/wlochy/mieszkanie-58m2-warszawa-wlochy/1005079644420912404658209",
        "longitude": 20.8899565,
        "precise": true,
        "title": "Mieszkanie 58m2 Warszawa Włochy"
    },
    {
        "address": "Mokotów,Warszawa, Warneńska ",
        "district": "Mokotów,Warszawa",
        "id": "508124819",
        "latitude": 52.182817299999996,
        "link": "https://www.gumtree.pl/a-mieszkania-i-domy-sprzedam-i-kupie/mokotow/sprzedam-mieszkanie-2-pokojowe-na-parterze-+-sadyba/1005081248190910485976009",
        "longitude": 21.047830899999997,
        "precise": false,
        "title": "Sprzedam mieszkanie 2 pokojowe na parterze - Sadyba"
    },
    {
        "address": "Praga Południe,Warszawa, Manteuffla",
        "district": "Praga Południe,Warszawa",
        "id": "508197759",
        "latitude": 52.2204431,
        "link": "https://www.gumtree.pl/a-mieszkania-i-domy-sprzedam-i-kupie/praga-poludnie/bezposrednio-goclaw-manteuffla-2-pokoje/1005081977590910565036109",
        "longitude": 21.0978377,
        "precise": false,
        "title": "Bezpośrednio, Gocław, Manteuffla, 2 pokoje,"
    },
    {
        "address": "Włochy,Warszawa, Rakowska 11",
        "district": "Włochy,Warszawa",
        "id": "508199299",
        "latitude": 52.19595160000001,
        "link": "https://www.gumtree.pl/a-mieszkania-i-domy-sprzedam-i-kupie/wlochy/eleganckie-2+pokojowe-mieszkanie-na-rakowie-+-nie-wspolpracuje-z-agencjami/1005081992990910853483909",
        "longitude": 20.9512146,
        "precise": true,
        "title": "Eleganckie 2-pokojowe mieszkanie na Rakowie - NIE WSPÓŁPRACUJĘ Z AGENCJAMI"
    },
    {
        "address": "Ochota,Warszawa,  ul. Baleya",
        "district": "Ochota,Warszawa",
        "id": "508232510",
        "latitude": 52.197727400000005,
        "link": "https://www.gumtree.pl/a-mieszkania-i-domy-sprzedam-i-kupie/ochota/bezposrednio-mieszkanie-po-remoncie-3-pokojowe-na-ochocie-rakowiec-ul-baleya/1005082325100912411891709",
        "longitude": 20.980922300000003,
        "precise": false,
        "title": "Bezpośrednio mieszkanie po remoncie 3 pokojowe na Ochocie, Rakowiec ul. Baleya"
    },
    {
        "address": "Praga Południe,Warszawa, Umińskiego",
        "district": "Praga Południe,Warszawa",
        "id": "508260727",
        "latitude": 52.2272688,
        "link": "https://www.gumtree.pl/a-mieszkania-i-domy-sprzedam-i-kupie/praga-poludnie/goclaw-ustawne-rozkladowe-2-pokoje-z-duzym-balkonem-20-min-do-centrum/1005082607270912401278409",
        "longitude": 21.0992057,
        "precise": false,
        "title": "Gocław/Ustawne rozkładowe 2 pokoje z dużym balkonem/20 min do Centrum "
    }
]