[
    {
        "address": "Śródmieście,Warszawa,  Polska",
        "district": "Śródmieście,Warszawa",
        "id": "512946576",
        "latitude": 52.2301756,
        "link": "https://www.gumtree.pl/a-mieszkania-i-domy-sprzedam-i-kupie/srodmiescie/dom-z-dala-od-sasiadow-w-zielonej-okolicy-duza-dzialka/1005129465760912395562709",
        "longitude": 21.0124287,
        "precise": false,
        "title": "Dom z dala od sąsiadów w zielonej okolicy. Duża działka"
    },
    {
        "address": "Praga Południe,Warszawa, ul. Garwolińska 16a",
        "district": "Praga Południe,Warszawa",
        "id": "535260737",
        "latitude": 52.248326,
        "link": "https://www.gumtree.pl/a-mieszkania-i-domy-sprzedam-i-kupie/praga-poludnie/sprzedam-mieszkanie-48m2-3+pokoje-ul-garwolinska-przy-parku-polinskiego/1005352607370912429652009",
        "longitude": 21.0932669,
        "precise": true,
        "title": "Sprzedam mieszkanie 48m2 3-pokoje ul. Garwolińska przy Parku Polińskiego"
    },
    {
        "address": "Praga Południe,Warszawa, ul.Osowska 82 ",
        "district": "Praga Południe,Warszawa",
        "id": "551669180",
        "latitude": 52.2470113,
        "link": "https://www.gumtree.pl/a-mieszkania-i-domy-sprzedam-i-kupie/praga-poludnie/odstapie-partycypacje-+-mieszkanie-tbs-+-warszawa-praga-poludnie-osowska-82-56-30m2-2005r/1005516691800912440951309",
        "longitude": 21.0955594,
        "precise": true,
        "title": "ODSTĄPIĘ PARTYCYPACJĘ - MIESZKANIE TBS - WARSZAWA PRAGA POŁUDNIE OSOWSKA 82 56,30m2, 2005r"
    },
    {
        "address": "Bielany,Warszawa, Żeromskiego Mieszkanie ",
        "district": "Bielany,Warszawa",
        "id": "551925274",
        "latitude": 52.27813659999999,
        "link": "https://www.gumtree.pl/a-mieszkania-i-domy-sprzedam-i-kupie/bielany/bezposrednio+ul-zeromskiego-warszawa/1005519252740910665922709",
        "longitude": 20.963969000000002,
        "precise": false,
        "title": "bezpośrednio-ul Żeromskiego Warszawa"
    },
    {
        "address": "Mokotów,Warszawa,   - Służew nad Dolinką ",
        "district": "Mokotów,Warszawa",
        "id": "552040627",
        "latitude": 52.1740276,
        "link": "https://www.gumtree.pl/a-mieszkania-i-domy-sprzedam-i-kupie/mokotow/sprzedam-mieszkanie-+-bezposrednio-sluzew-nad-dolinka-47-m2/1005520406270910766539909",
        "longitude": 21.02098,
        "precise": false,
        "title": "Sprzedam mieszkanie - bezpośrednio (Służew nad Dolinką) 47 m2"
    },
    {
        "address": "Targówek,Warszawa, Suwalska",
        "district": "Targówek,Warszawa",
        "id": "552749010",
        "latitude": 52.2955471,
        "link": "https://www.gumtree.pl/a-mieszkania-i-domy-sprzedam-i-kupie/targowek/sprzedam-mieszkanie-zamienie-na-dom/1005527490100911220940509",
        "longitude": 21.0337233,
        "precise": false,
        "title": " Sprzedam mieszkanie/zamienie na dom "
    },
    {
        "address": "Bielany,Warszawa, Wrzeciono",
        "district": "Bielany,Warszawa",
        "id": "552863841",
        "latitude": 52.293397299999995,
        "link": "https://www.gumtree.pl/a-mieszkania-i-domy-sprzedam-i-kupie/bielany/sloneczne-mieszkanie-2-pokoje-warszawa-bielany-wrzeciono/1005528638410910472964009",
        "longitude": 20.9400165,
        "precise": false,
        "title": "Słoneczne mieszkanie 2 pokoje Warszawa Bielany Wrzeciono"
    },
    {
        "address": null,
        "district": "Śródmieście,Warszawa",
        "id": "552936093",
        "link": "https://www.gumtree.pl/a-mieszkania-i-domy-sprzedam-i-kupie/srodmiescie/tanio-sprzedam-zamienie/1005529360930911561360109",
        "title": "Tanio sprzedam,zamienie."
    },
    {
        "address": "Targówek,Warszawa, Ogińskiego 1",
        "district": "Targówek,Warszawa",
        "id": "553176599",
        "latitude": 52.28308000000001,
        "link": "https://www.gumtree.pl/a-mieszkania-i-domy-sprzedam-i-kupie/targowek/bezposrednio-41-m2-2-pokoje-balkon-klimatyzacja-wysoki-standard-brodno-targowek/1005531765990911369044209",
        "longitude": 21.027196,
        "precise": true,
        "title": "BEZPOŚREDNIO 41 m2, 2 pokoje, balkon, klimatyzacja, wysoki standard BRÓDNO TARGÓWEK"
    },
    {
        "address": null,
        "district": "Bielany,Warszawa",
        "id": "553356237",
        "link": "https://www.gumtree.pl/a-mieszkania-i-domy-sprzedam-i-kupie/bielany/warszawa-bielany-38m2-3-pokoje-bezposrednio/1005533562370912413577609",
        "title": "Warszawa Bielany, 38m2, 3 pokoje, BEZPOŚREDNIO"
    },
    {
        "address": "Czerska",
        "district": "Mokotów,Warszawa",
        "id": "553508467",
        "latitude": 52.2052359,
        "link": "https://www.gumtree.pl/a-mieszkania-i-domy-sprzedam-i-kupie/mokotow/mieszkanie-na-sielcach-w-kamienicy-z-lat-50-prestizowa-okolica-ul-czerska/1005535084670910956518709",
        "longitude": 21.0459802,
        "precise": false,
        "title": "Mieszkanie na Sielcach w kamienicy z lat 50 prestiżowa okolica ul. Czerska"
    },
    {
        "address": "Praga Południe,Warszawa, Nasielskiej ",
        "district": "Praga Południe,Warszawa",
        "id": "553519236",
        "latitude": 52.2482374,
        "link": "https://www.gumtree.pl/a-mieszkania-i-domy-sprzedam-i-kupie/praga-poludnie/okazja-mieszkanie-w-kameralnej-czesci-grochowa-z-bardzo-dobrym-polaczeniem-do-centrum/1005535192360910956518709",
        "longitude": 21.099996,
        "precise": false,
        "title": "OKAZJA Mieszkanie w kameralnej części Grochowa z bardzo dobrym połączeniem do Centrum"
    },
    {
        "address": "Praga Południe,Warszawa, Nasielskiej ",
        "district": "Praga Południe,Warszawa",
        "id": "553522951",
        "latitude": 52.247937400000005,
        "link": "https://www.gumtree.pl/a-mieszkania-i-domy-sprzedam-i-kupie/praga-poludnie/okazja-mieszkanie-w-kameralnej-czesci-grochowa-z-bardzo-dobrym-polaczeniem-do-centrum/1005535229510910956518709",
        "longitude": 21.099695999999998,
        "precise": false,
        "title": "OKAZJA Mieszkanie w kameralnej części Grochowa z bardzo dobrym połączeniem do Centrum"
    },
    {
        "address": "Praga Południe,Warszawa, Nasielskiej ",
        "district": "Praga Południe,Warszawa",
        "id": "553545915",
        "latitude": 52.248537400000004,
        "link": "https://www.gumtree.pl/a-mieszkania-i-domy-sprzedam-i-kupie/praga-poludnie/okazja-mieszkanie-w-kameralnej-czesci-grochowa-z-bardzo-dobrym-polaczeniem-do-centrum/1005535459150910956518709",
        "longitude": 21.099996,
        "precise": false,
        "title": "OKAZJA Mieszkanie w kameralnej części Grochowa z bardzo dobrym połączeniem do Centrum"
    },
    {
        "address": "Mokotów,Warszawa, Portofino",
        "district": "Mokotów,Warszawa",
        "id": "553584020",
        "latitude": 52.176580900000005,
        "link": "https://www.gumtree.pl/a-mieszkania-i-domy-sprzedam-i-kupie/mokotow/mieszkanie-mokotow-stegny/1005535840200912442073309",
        "longitude": 21.060307199999997,
        "precise": false,
        "title": "Mieszkanie Mokotów Stegny"
    },
    {
        "address": "Ożrowska",
        "district": "Wola,Warszawa",
        "id": "553784558",
        "latitude": 52.2471448,
        "link": "https://www.gumtree.pl/a-mieszkania-i-domy-sprzedam-i-kupie/wola/metro-ksiecia-janusza-ul-ozrowska-42m2-2-pietro-park-cegla+-417tys-zl/1005537845580910944401209",
        "longitude": 20.950421799999997,
        "precise": false,
        "title": "Metro Księcia Janusza,ul. Ożrowska, 42m2.,2 piętro, park, cegła- 417tys.zł"
    },
    {
        "address": "Targówek,Warszawa, Wyszogrodzka",
        "district": "Targówek,Warszawa",
        "id": "553815014",
        "latitude": 52.2893531,
        "link": "https://www.gumtree.pl/a-mieszkania-i-domy-sprzedam-i-kupie/targowek/tragowek-ul-wyszogrodzka-+-3pok-balkon-park-metro+po-remoncie+397-tys-zl/1005538150140910944401209",
        "longitude": 21.0366018,
        "precise": false,
        "title": "Tragówek, ul.Wyszogrodzka - 3pok.,balkon,park,METRO-PO REMONCIE-397 tys.zł"
    },
    {
        "address": "Mokotów,Warszawa, Cybernetyki ",
        "district": "Mokotów,Warszawa",
        "id": "554010761",
        "latitude": 52.177121,
        "link": "https://www.gumtree.pl/a-mieszkania-i-domy-sprzedam-i-kupie/mokotow/mokotow-+41-57-m2-+2-pokoje-+2-balkony+garaz-+zakonczenie-bud-10-2019-r-+-pietro-6-6+-0-prowizji/1005540107610910468739609",
        "longitude": 20.992876799999998,
        "precise": false,
        "title": "MOKOTÓW -41,57 m2 -2 POKOJE -2 BALKONY-GARAŻ -Zakończenie Bud. 10.2019 r. - piętro 6/6- 0% PROWIZJI"
    },
    {
        "address": null,
        "district": "Bielany,Warszawa",
        "id": "554523374",
        "link": "https://www.gumtree.pl/a-mieszkania-i-domy-sprzedam-i-kupie/bielany/mieszkanie-tarchomin/1005545233740911172142309",
        "title": "Mieszkanie Tarchomin"
    },
    {
        "address": null,
        "district": "Śródmieście,Warszawa",
        "id": "554838164",
        "link": "https://www.gumtree.pl/a-mieszkania-i-domy-sprzedam-i-kupie/srodmiescie/bezposrednio-ladne-mieszkanie-w-zadbanej-kamienicy-na-inwestycje-w-dobrej-cenie/1005548381640912431628809",
        "title": "Bezpośrednio. Ładne mieszkanie w zadbanej kamienicy na inwestycję w dobrej cenie"
    },
    {
        "address": "Bielany,Warszawa, pod kopcem34",
        "district": "Bielany,Warszawa",
        "id": "555470763",
        "latitude": 52.211621,
        "link": "https://www.gumtree.pl/a-mieszkania-i-domy-sprzedam-i-kupie/bielany/mieszkanie-ciche-pietro2-10-po-kapitalnym/1005554707630910495566609",
        "longitude": 21.0578737,
        "precise": true,
        "title": "Mieszkanie ciche,piętro2/10,po kapitalnym."
    },
    {
        "address": "Bielany,Warszawa, pod kopcem34",
        "district": "Bielany,Warszawa",
        "id": "555472566",
        "latitude": 52.211621,
        "link": "https://www.gumtree.pl/a-mieszkania-i-domy-sprzedam-i-kupie/bielany/mieszkanie-ciche-pietro2-10-po-kapitalnym/1005554725660910495566609",
        "longitude": 21.0578737,
        "precise": true,
        "title": "Mieszkanie ciche,piętro2/10,po kapitalnym."
    },
    {
        "address": "Praga Południe,Warszawa, Północna wieża Ostrobramska 83   Poland",
        "district": "Praga Południe,Warszawa",
        "id": "555559979",
        "latitude": 52.234115,
        "link": "https://www.gumtree.pl/a-mieszkania-i-domy-sprzedam-i-kupie/praga-poludnie/bardzo-ladna-mieszkanie/1005555599790912442937209",
        "longitude": 21.0994905,
        "precise": true,
        "title": "Bardzo Ładna Mieszkanie"
    },
    {
        "address": "Mokotów,Warszawa, ul. Gagarina",
        "district": "Mokotów,Warszawa",
        "id": "555860019",
        "latitude": 52.2070935,
        "link": "https://www.gumtree.pl/a-mieszkania-i-domy-sprzedam-i-kupie/mokotow/mieszkanie-na-sprzedaz-dolny-mokotow-44-m-kw-2-pokoje/1005558600190910514034709",
        "longitude": 21.040470300000003,
        "precise": false,
        "title": "Mieszkanie na sprzedaż Dolny Mokotów 44 m.kw./2 pokoje"
    },
    {
        "address": "Bielany,Warszawa, pod kopcem34",
        "district": "Bielany,Warszawa",
        "id": "555864837",
        "latitude": 52.211621,
        "link": "https://www.gumtree.pl/a-mieszkania-i-domy-sprzedam-i-kupie/bielany/mieszkanie-ciche-pietro2-10-po-kapitalnym/1005558648370910495566609",
        "longitude": 21.0578737,
        "precise": true,
        "title": "Mieszkanie ciche,piętro2/10,po kapitalnym."
    },
    {
        "address": "Mokotów,Warszawa, Konstancińska 1",
        "district": "Mokotów,Warszawa",
        "id": "556077733",
        "latitude": 52.186009,
        "link": "https://www.gumtree.pl/a-mieszkania-i-domy-sprzedam-i-kupie/mokotow/sprzedam-bezposrednio-50m-na-sadybie/1005560777330910498023809",
        "longitude": 21.061452,
        "precise": true,
        "title": "Sprzedam bezpośrednio 50m na sadybie"
    },
    {
        "address": "Targówek,Warszawa, Wyszogrodzkiej",
        "district": "Targówek,Warszawa",
        "id": "556091672",
        "latitude": 52.2886531,
        "link": "https://www.gumtree.pl/a-mieszkania-i-domy-sprzedam-i-kupie/targowek/okazja-bezposrednio-3-pokoje-na-targowku-ul-wyszogrodzka/1005560916720911477800109",
        "longitude": 21.036001799999998,
        "precise": false,
        "title": "Okazja bezpośrednio 3 pokoje na Targówku, ul.Wyszogrodzka"
    },
    {
        "address": "Targówek,Warszawa, Krasnobrodzka",
        "district": "Targówek,Warszawa",
        "id": "556197862",
        "latitude": 52.3006355,
        "link": "https://www.gumtree.pl/a-mieszkania-i-domy-sprzedam-i-kupie/targowek/z-kw-bezposrednio-3-pokoje-46-m-po-generalnym-remoncie-nowe-targowek/1005561978620910464492009",
        "longitude": 21.0423881,
        "precise": false,
        "title": "z KW Bezpośrednio 3 pokoje 46 m Po generalnym remoncie NOWE Targówek"
    },
    {
        "address": "Praga Północ,Warszawa,  Siedlecka 16",
        "district": "Praga Północ,Warszawa",
        "id": "556264381",
        "latitude": 52.2578677,
        "link": "https://www.gumtree.pl/a-mieszkania-i-domy-sprzedam-i-kupie/praga-polnoc/siedlecka-2-pokoje-38m-%252B-piwnica-balkon-z-widokiem-2min-tram-10min-metro/1005562643810911326449309",
        "longitude": 21.0547023,
        "precise": true,
        "title": "Siedlecka, 2 pokoje, 38m + piwnica, balkon z widokiem, 2min tram., 10min Metro"
    },
    {
        "address": "Praga Południe,Warszawa, Włochy",
        "district": "Praga Południe,Warszawa",
        "id": "557382726",
        "latitude": 52.2418808,
        "link": "https://www.gumtree.pl/a-mieszkania-i-domy-sprzedam-i-kupie/praga-poludnie/funkcjonalne-dwa-pokoje-38-04-m2-praga-+-poludnie/1005573827260912439494109",
        "longitude": 21.0848602,
        "precise": false,
        "title": "Funkcjonalne dwa pokoje 38,04 m2 Praga - Południe"
    },
    {
        "address": "Mokotów,Warszawa, ul. Warneńska  ",
        "district": "Mokotów,Warszawa",
        "id": "557455346",
        "latitude": 52.1824173,
        "link": "https://www.gumtree.pl/a-mieszkania-i-domy-sprzedam-i-kupie/mokotow/sprzedam-bezposrednio-mieszkanie-+-stegny-ul-warnenska-+-2-pokoje-+-42-5m2-+-balkon/1005574553460912444446809",
        "longitude": 21.047830899999997,
        "precise": false,
        "title": "Sprzedam bezpośrednio mieszkanie - Stegny, ul. Warneńska - 2 pokoje - 42.5m2 - Balkon "
    },
    {
        "address": "Ochota,Warszawa, Skorochód-Majewskiego",
        "district": "Ochota,Warszawa",
        "id": "557497303",
        "latitude": 52.206306899999994,
        "link": "https://www.gumtree.pl/a-mieszkania-i-domy-sprzedam-i-kupie/ochota/bezposrednio-3pokoje-44m2-ochota-blisko-um/1005574973030912444897009",
        "longitude": 20.9739734,
        "precise": false,
        "title": "Bezpośrednio, 3pokoje 44m2, Ochota, Blisko UM"
    },
    {
        "address": "Mokotów,Warszawa, Żyrardów ul. Sikorskiego",
        "district": "Mokotów,Warszawa",
        "id": "557661921",
        "latitude": 52.1830432,
        "link": "https://www.gumtree.pl/a-mieszkania-i-domy-sprzedam-i-kupie/mokotow/mieszkanie-m3-2-pokoje-%252B-widna-kuchnia-parter-po-remoncie-generalnym/1005576619210912108591009",
        "longitude": 21.0463497,
        "precise": false,
        "title": "Mieszkanie M3 2 pokoje + widna kuchnia, PARTER, PO REMONCIE GENERALNYM"
    },
    {
        "address": "Praga Północ,Warszawa,  Łochowska 1",
        "district": "Praga Północ,Warszawa",
        "id": "557829788",
        "latitude": 52.2594931,
        "link": "https://www.gumtree.pl/a-mieszkania-i-domy-sprzedam-i-kupie/praga-polnoc/okazja-extra-lokalizacja-38m-10500zl-m2-lochowska/1005578297880912439602009",
        "longitude": 21.0542632,
        "precise": true,
        "title": "Okazja Extra lokalizacja 38m (10500zł/m2) Łochowska"
    },
    {
        "address": "Praga Południe,Warszawa, Afrykańska",
        "district": "Praga Południe,Warszawa",
        "id": "558179737",
        "latitude": 52.226432999999986,
        "link": "https://www.gumtree.pl/a-mieszkania-i-domy-sprzedam-i-kupie/praga-poludnie/sprzedam-mieszkanie-do-remontu-48m2-na-saskiej-kepie/1005581797370911231688909",
        "longitude": 21.0714475,
        "precise": false,
        "title": "Sprzedam mieszkanie do remontu (48m2) na Saskiej Kępie"
    },
    {
        "address": "Wola,Warszawa, Gorczewskiej ",
        "district": "Wola,Warszawa",
        "id": "558387396",
        "latitude": 52.2397214,
        "link": "https://www.gumtree.pl/a-mieszkania-i-domy-sprzedam-i-kupie/wola/mieszkanie-przy-wejsciu-do-metra-mlynow-plocka-gorczewska/1005583873960910956518709",
        "longitude": 20.9440896,
        "precise": false,
        "title": "Mieszkanie przy wejściu do metra Młynów Płocka/Górczewska"
    },
    {
        "address": "Praga Północ,Warszawa, Okrzei ",
        "district": "Praga Północ,Warszawa",
        "id": "558455147",
        "latitude": 52.2497955,
        "link": "https://www.gumtree.pl/a-mieszkania-i-domy-sprzedam-i-kupie/praga-polnoc/mieszkanie-na-sprzedaz-port-praski-46m2/1005584551470910844415109",
        "longitude": 21.0323897,
        "precise": false,
        "title": "Mieszkanie na sprzedaż Port Praski 46m2"
    },
    {
        "address": "Praga Południe,Warszawa, Międzynarodowej 38",
        "district": "Praga Południe,Warszawa",
        "id": "558463554",
        "latitude": 52.2321649,
        "link": "https://www.gumtree.pl/a-mieszkania-i-domy-sprzedam-i-kupie/praga-poludnie/2-pokoje-z-balkonem-na-saskiej-kepie-po-remoncie-bezposrednio/1005584635540911101170509",
        "longitude": 21.0678841,
        "precise": true,
        "title": "2 pokoje z balkonem na Saskiej Kępie, po remoncie, bezpośrednio"
    },
    {
        "address": "Praga Północ,Warszawa, Siedlecka",
        "district": "Praga Północ,Warszawa",
        "id": "558749077",
        "latitude": 52.2592573,
        "link": "https://www.gumtree.pl/a-mieszkania-i-domy-sprzedam-i-kupie/praga-polnoc/2+pokojowe-38m2-po-remoncie-praga-pln-w-warszawie/1005587490770910470587509",
        "longitude": 21.0589853,
        "precise": false,
        "title": "2-pokojowe 38m2 po remoncie Praga Płn.  w  WARSZAWIE"
    },
    {
        "address": "Mokotów,Warszawa,  ul. 17 stycznia 39A",
        "district": "Mokotów,Warszawa",
        "id": "558757385",
        "latitude": 52.1793519,
        "link": "https://www.gumtree.pl/a-mieszkania-i-domy-sprzedam-i-kupie/mokotow/bezposrednio-do-sprzedania-mieszkanie-przy-ul-17-stycznia-39a/1005587573850910657489609",
        "longitude": 20.977384,
        "precise": true,
        "title": "Bezpośrednio do sprzedania mieszkanie przy ul. 17 stycznia 39A"
    },
    {
        "address": null,
        "district": "Ochota,Warszawa",
        "id": "558879961",
        "link": "https://www.gumtree.pl/a-mieszkania-i-domy-sprzedam-i-kupie/ochota/niemcy-sprzedam-wynajme-dom-30-km-od-kolbaskowa/1005588799610910468554909",
        "title": "Niemcy, sprzedam/wynajmę  dom, 30 km od Kołbaskowa."
    },
    {
        "address": "Targówek,Warszawa, ul. Syrokomli 7/13",
        "district": "Targówek,Warszawa",
        "id": "559080575",
        "latitude": 52.2848955,
        "link": "https://www.gumtree.pl/a-mieszkania-i-domy-sprzedam-i-kupie/targowek/mieszkanie-3-pokojowe-targowek-+-blisko-metra/1005590805750911132907809",
        "longitude": 21.0243881,
        "precise": true,
        "title": "Mieszkanie 3 pokojowe TARGÓWEK - BLISKO METRA"
    }
]