[
    {
        "address": "Warszawa, Mokotów, Marzanny",
        "district": "Warszawa, Mokotów",
        "id": "534927197",
        "latitude": 52.191466000000005,
        "link": "https://www.olx.pl/oferta/super-lokalizacja-dwupokojowe-ul-marzanny-CID3-IDAcw01.html#343ed7b49d",
        "longitude": 21.004220099999998,
        "precise": false,
        "title": "Super lokalizacja! Dwupokojowe ul. Marzanny"
    },
    {
        "address": "Warszawa, Ochota, Szczęśliwicka 19",
        "district": "Warszawa, Ochota",
        "id": "534927931",
        "latitude": 52.218222,
        "link": "https://www.otodom.pl/oferta/stara-ochota-bezposrednio-2-pokojowe-mieszkanie-43-ID40U81.html?",
        "longitude": 20.97316,
        "precise": true,
        "title": "Stara Ochota BEZPOŚREDNIO 2-pokojowe mieszkanie 43"
    },
    {
        "address": "Warszawa, Targówek, Wyszogrodzkiej",
        "district": "Warszawa, Targówek",
        "id": "534931306",
        "latitude": 52.2888531,
        "link": "https://www.olx.pl/oferta/urocze-2-pokojowe-mieszkanie-z-klimatem-swiezo-po-remoncie-na-targowku-CID3-IDAcv4i.html#343ed7b49d",
        "longitude": 21.0365018,
        "precise": false,
        "title": "Urocze 2 pokojowe mieszkanie z klimatem świeżo po remoncie na Targówku"
    },
    {
        "address": null,
        "district": "Warszawa, Praga-Północ",
        "id": "535038428",
        "link": "https://www.otodom.pl/oferta/mieszkanie-usytuowane-na-placu-hallera-ID40UOc.html?",
        "title": "Mieszkanie usytuowane na Placu Hallera"
    },
    {
        "address": null,
        "district": "Warszawa, Bielany",
        "id": "535063742",
        "link": "https://www.olx.pl/oferta/sprzedam-dwupokojowe-mieszkanie-na-bielanach-CID3-IDAd4vm.html#343ed7b49d",
        "title": "sprzedam dwupokojowe mieszkanie na Bielanach"
    },
    {
        "address": "Warszawa, Bemowo, Powstańców Śląskich 85",
        "district": "Warszawa, Bemowo",
        "id": "535090406",
        "latitude": 52.2423087,
        "link": "https://www.olx.pl/oferta/sprzedam-bezposrednio-2-pokoje-bemowo-CID3-IDAdbsq.html#343ed7b49d",
        "longitude": 20.9110707,
        "precise": true,
        "title": "Sprzedam bezpośrednio 2 pokoje Bemowo"
    },
    {
        "address": "Warszawa, Praga-Północ, ul. Wileńska",
        "district": "Warszawa, Praga-Północ",
        "id": "535107651",
        "latitude": 52.2590206,
        "link": "https://www.otodom.pl/oferta/dwupokojowe-mieszkanie-inwestycja-wilenska-express-ID40WgO.html?",
        "longitude": 21.0403514,
        "precise": false,
        "title": "Dwupokojowe mieszkanie inwestycja Wileńska Express"
    },
    {
        "address": null,
        "district": "Warszawa, Ochota",
        "id": "535111646",
        "link": "https://www.olx.pl/oferta/mieszkanie-al-jerozolimskie-po-remoncie-2-pokoje-ostatnie-pietro-CID3-IDAdgZ0.html#343ed7b49d",
        "title": "Mieszkanie Al.Jerozolimskie po remoncie 2 pokoje, ostatnie piętro"
    }
]