[
    {
        "address": "Warszawa, Bielany, Kaliszówka",
        "district": "Warszawa, Bielany",
        "id": "530154018",
        "latitude": 52.2883043,
        "link": "https://www.otodom.pl/oferta/idealne-dla-celow-inwestycyjnych-min-6-zwrotu-ID3ZXtu.html?",
        "longitude": 20.9306782,
        "precise": false,
        "title": "Idealne dla celów inwestycyjnych - min 6% zwrotu"
    },
    {
        "address": "Warszawa, Bielany, Marymonckiej ",
        "district": "Warszawa, Bielany",
        "id": "538742826",
        "latitude": 52.2891609,
        "link": "https://www.olx.pl/oferta/mieszkanie-dwupokojowe-z-osobna-kuchnia-przy-lasku-bielanskim-sprzedam-CID3-IDAswCq.html#b24cef3d9e;promoted",
        "longitude": 20.9523132,
        "precise": false,
        "title": "Mieszkanie dwupokojowe z osobną kuchnią przy Lasku Bielańskim sprzedam"
    },
    {
        "address": "Warszawa, Praga-Południe, Bracławskiej",
        "district": "Warszawa, Praga-Południe",
        "id": "539211814",
        "latitude": 52.2333889,
        "link": "https://www.olx.pl/oferta/mieszkanie-goclaw-CID3-IDAutCK.html#b24cef3d9e",
        "longitude": 21.0784301,
        "precise": false,
        "title": "Mieszkanie_Gocław"
    },
    {
        "address": "Warszawa, Ursynów, Na Uboczu",
        "district": "Warszawa, Ursynów",
        "id": "539277202",
        "latitude": 52.14013529999999,
        "link": "https://www.otodom.pl/oferta/mieszkanie-47-m2-warszawa-ursynow-natolin-ID3fUg0.html?",
        "longitude": 21.0503045,
        "precise": false,
        "title": "Mieszkanie 47 m2, Warszawa Ursynów Natolin"
    },
    {
        "address": "Warszawa, Wola, ul. Karolkowa 78",
        "district": "Warszawa, Wola",
        "id": "539285302",
        "latitude": 52.239466,
        "link": "https://www.otodom.pl/oferta/w-kamienicy-na-karolkowej-ID41gjD.html?",
        "longitude": 20.9754926,
        "precise": true,
        "title": "W kamienicy na Karolkowej !!!"
    },
    {
        "address": "Warszawa, Targówek, Chodeckiej 1",
        "district": "Warszawa, Targówek",
        "id": "539291495",
        "latitude": 52.286901,
        "link": "https://www.olx.pl/oferta/targowek-brodno-mieszkanie-38-m2-bezposrednio-CID3-IDAuOlW.html#b24cef3d9e",
        "longitude": 21.039848,
        "precise": true,
        "title": "Targówek (Bródno) Mieszkanie 38 m2 Bezpośrednio"
    },
    {
        "address": null,
        "district": "Warszawa, Bielany",
        "id": "539311875",
        "link": "https://www.otodom.pl/oferta/mieszkanie-2-pokojowe-45-63-m2-warszawa-bielany-ID41guW.html?",
        "title": "Mieszkanie 2 pokojowe 45,63 m2 Warszawa Bielany"
    },
    {
        "address": "Warszawa, Praga-Północ, ul. Kijowska",
        "district": "Warszawa, Praga-Północ",
        "id": "539333275",
        "latitude": 52.2523273,
        "link": "https://www.otodom.pl/oferta/2-pokojowe-38-m2-do-remontu-praga-polnoc-ID41gAD.html?",
        "longitude": 21.0491235,
        "precise": false,
        "title": "2 pokojowe 38 m2 do remontu Praga - Północ"
    },
    {
        "address": null,
        "district": "Warszawa, Targówek",
        "id": "539408662",
        "link": "https://www.olx.pl/oferta/sprzedam-bezposrednio-mieszkanie-43m2-CID3-IDAwiPI.html#343ed7b49d",
        "title": "Sprzedam bezpośrednio mieszkanie 43m2"
    },
    {
        "address": "Warszawa, Żoliborz, Tołwińskiego ",
        "district": "Warszawa, Żoliborz",
        "id": "539422326",
        "latitude": 52.2683133,
        "link": "https://www.olx.pl/oferta/mieszkanie-z-potencjalem-zoliborz-CID3-IDAwmo6.html#343ed7b49d",
        "longitude": 20.9694026,
        "precise": false,
        "title": "Mieszkanie z potencjałem Żoliborz"
    },
    {
        "address": null,
        "district": "Warszawa, Bielany",
        "id": "539463085",
        "link": "https://www.olx.pl/oferta/2-pokoje-z-oddzielna-kuchnia-i-jadalnia-52m2-bielany-warszawa-CID3-IDAwvZw.html#343ed7b49d;promoted",
        "title": "2 pokoje z oddzielną kuchnią i jadalnią - 52m2, Bielany, Warszawa"
    },
    {
        "address": "Warszawa, Mokotów, ul. Jana III Sobieskiego",
        "district": "Warszawa, Mokotów",
        "id": "539473338",
        "latitude": 52.1853939,
        "link": "https://www.otodom.pl/oferta/mieszkanie-45-65m-3-pokoje-mokotow-sobieskiego-ID41hqT.html?",
        "longitude": 21.0525269,
        "precise": false,
        "title": "Mieszkanie 45,65m, 3 pokoje, Mokotów, Sobieskiego"
    },
    {
        "address": "Warszawa, Mokotów, ul. Pory",
        "district": "Warszawa, Mokotów",
        "id": "539590969",
        "latitude": 52.1892027,
        "link": "https://www.otodom.pl/oferta/stegny-2-pokoje-39-15-m2-loggia-9m2-ID41hEF.html?",
        "longitude": 21.045264799999998,
        "precise": false,
        "title": "Stegny / 2 pokoje / 39,15 m2 / loggia 9m2"
    },
    {
        "address": null,
        "district": "Warszawa, Praga-Południe",
        "id": "539621271",
        "link": "https://www.otodom.pl/oferta/mieszkanie-ID41hJP.html?",
        "title": "Mieszkanie"
    },
    {
        "address": "Warszawa, Ochota, ul. Pruszkowska",
        "district": "Warszawa, Ochota",
        "id": "539651744",
        "latitude": 52.2024074,
        "link": "https://www.otodom.pl/oferta/zamieszkaj-w-parku-2-pokoje-w-zielonej-okolicy-ID41hOu.html?",
        "longitude": 20.980500600000003,
        "precise": false,
        "title": "ZAMIESZKAJ W PARKU -- 2 pokoje w zielonej okolicy"
    },
    {
        "address": "Warszawa, Targówek, ul. Ludwika Kondratowicza",
        "district": "Warszawa, Targówek",
        "id": "539672996",
        "latitude": 52.292900599999996,
        "link": "https://www.otodom.pl/oferta/3-pokoje-do-remontu-65-m2-brodno-przy-metrze-ID41hTN.html?",
        "longitude": 21.0481495,
        "precise": false,
        "title": "3 pokoje do remontu 65 m2 Bródno przy Metrze"
    },
    {
        "address": null,
        "district": "Warszawa, Targówek",
        "id": "539753795",
        "link": "https://www.otodom.pl/oferta/mieszkanie-2-pokoje-targowek-brodno-po-remoncie-ID3Twfy.html?",
        "title": "Mieszkanie 2 pokoje, Targówek, Bródno, po remoncie"
    }
]