[
    {
        "address": "Mokotów,Warszawa, ul. Mozarta ",
        "district": "Mokotów,Warszawa",
        "id": "531631440",
        "latitude": 52.172657199999996,
        "link": "https://www.gumtree.pl/a-mieszkania-i-domy-sprzedam-i-kupie/mokotow/okazja-na-sprzedaz-mieszkanie-2-pokoje-sluzew-nad-dolinka-+-mokotow-bezposrednio/1005316314400910517761509",
        "longitude": 21.0310291,
        "precise": false,
        "title": "Okazja! Na sprzedaż mieszkanie 2 pokoje Służew nad Dolinką - Mokotów BEZPOŚREDNIO!!"
    },
    {
        "address": null,
        "district": "Bielany,Warszawa",
        "id": "531789596",
        "link": "https://www.gumtree.pl/a-mieszkania-i-domy-sprzedam-i-kupie/bielany/2-pokoje-do-generalnego-remontu/1005317895960911134256609",
        "title": "2 pokoje do generalnego remontu"
    },
    {
        "address": "Mokotów,Warszawa,  ul.Rzymowskiego",
        "district": "Mokotów,Warszawa",
        "id": "532133582",
        "latitude": 52.1702548,
        "link": "https://www.gumtree.pl/a-mieszkania-i-domy-sprzedam-i-kupie/mokotow/do-zamieszkania-od-zaraz-2-sloneczne-pokoje-na-mokotowie/1005321335820912123364609",
        "longitude": 21.009010099999998,
        "precise": false,
        "title": "Do zamieszkania od zaraz, 2 słoneczne pokoje na Mokotowie"
    },
    {
        "address": "Targówek,Warszawa, Malborska",
        "district": "Targówek,Warszawa",
        "id": "532378666",
        "latitude": 52.2997404,
        "link": "https://www.gumtree.pl/a-mieszkania-i-domy-sprzedam-i-kupie/targowek/3-pok-54-3-m2-wlasnosciowe-malborska-przy-metrze-sprzedam/1005323786660912427837409",
        "longitude": 21.0656301,
        "precise": false,
        "title": "3 pok. 54,3 m2 wlasnosciowe Malborska przy metrze sprzedam"
    },
    {
        "address": "Praga Południe,Warszawa,  Paca 43",
        "district": "Praga Południe,Warszawa",
        "id": "532442387",
        "latitude": 52.249025,
        "link": "https://www.gumtree.pl/a-mieszkania-i-domy-sprzedam-i-kupie/praga-poludnie/2-pokoje-z-kuchnia-na-grochowie/1005324423870910471765709",
        "longitude": 21.078056,
        "precise": true,
        "title": "2 pokoje z kuchnią na Grochowie"
    },
    {
        "address": "Targówek,Warszawa, Krasnobrodzka   Polska",
        "district": "Targówek,Warszawa",
        "id": "532811886",
        "latitude": 52.3008355,
        "link": "https://www.gumtree.pl/a-mieszkania-i-domy-sprzedam-i-kupie/targowek/mieszkanie-60m2-3pokoje/1005328118860910521330709",
        "longitude": 21.0422881,
        "precise": false,
        "title": "Mieszkanie 60m2 3pokoje"
    },
    {
        "address": "Mokotów,Warszawa, Braci Pillatich ",
        "district": "Mokotów,Warszawa",
        "id": "533169683",
        "latitude": 52.199651800000005,
        "link": "https://www.gumtree.pl/a-mieszkania-i-domy-sprzedam-i-kupie/mokotow/sprzedam-bezposrednio-3-pokojowe-mieszkanie-na-mokotowie/1005331696830910531982809",
        "longitude": 21.0346124,
        "precise": false,
        "title": "Sprzedam bezpośrednio 3 pokojowe mieszkanie na Mokotowie"
    }
]