[
    {
        "address": "Bielany,Warszawa, Marymoncka 143",
        "district": "Bielany,Warszawa",
        "id": "529736407",
        "latitude": 52.2951071,
        "link": "https://www.gumtree.pl/a-mieszkania-i-domy-sprzedam-i-kupie/bielany/mieszkanie-2+pokojowe-rozkladowe-marymoncka-przy-lasku-bielanskim/1005297364070912425788709",
        "longitude": 20.943926,
        "precise": true,
        "title": "Mieszkanie 2-pokojowe rozkładowe, Marymoncka, przy Lasku Bielańskim"
    },
    {
        "address": "Wola,Warszawa, Sowińskiego ",
        "district": "Wola,Warszawa",
        "id": "534641369",
        "latitude": 52.2276997,
        "link": "https://www.gumtree.pl/a-mieszkania-i-domy-sprzedam-i-kupie/wola/sprzedam-mieszkanie-3-pokoje-ul-sowinskiego/1005346413690910895086409",
        "longitude": 20.9356619,
        "precise": false,
        "title": "Sprzedam mieszkanie 3 pokoje  ul. Sowińskiego "
    },
    {
        "address": "Mokotów,Warszawa, Oskara Langego",
        "district": "Mokotów,Warszawa",
        "id": "534681491",
        "latitude": 52.1821173,
        "link": "https://www.gumtree.pl/a-mieszkania-i-domy-sprzedam-i-kupie/mokotow/2-pokoje-na-mokotowie-w-doskonalej-lokalizacji/1005346814910910470797009",
        "longitude": 21.0090079,
        "precise": false,
        "title": "2 pokoje na Mokotowie w doskonałej lokalizacji"
    },
    {
        "address": null,
        "district": "Żoliborz,Warszawa",
        "id": "534844261",
        "link": "https://www.gumtree.pl/a-mieszkania-i-domy-sprzedam-i-kupie/zoliborz/sprzedam-bezposrednio-mieszkanie-47-m-2-kw-warszawa-zoliborz/1005348442610911098734809",
        "title": "Sprzedam bezposrednio mieszkanie 47 m 2,KW, Warszawa Żoliborz "
    },
    {
        "address": "Bielany,Warszawa, Balzaka",
        "district": "Bielany,Warszawa",
        "id": "535164284",
        "latitude": 52.2837561,
        "link": "https://www.gumtree.pl/a-mieszkania-i-domy-sprzedam-i-kupie/bielany/trzy-pokoje-na-bielanach/1005351642840910500985209",
        "longitude": 20.930539099999997,
        "precise": false,
        "title": "Trzy pokoje na Bielanach "
    },
    {
        "address": "Mokotów,Warszawa, Jana III Sobieskiego",
        "district": "Mokotów,Warszawa",
        "id": "535168473",
        "latitude": 52.1859939,
        "link": "https://www.gumtree.pl/a-mieszkania-i-domy-sprzedam-i-kupie/mokotow/bezposrednio-sprzedam-mieszkanie-45-65-m-3-pokoje-mokotow-sobieskiego/1005351684730912429981409",
        "longitude": 21.0526269,
        "precise": false,
        "title": "Bezpośrednio, sprzedam mieszkanie 45,65 m, 3 pokoje, Mokotów, Sobieskiego"
    },
    {
        "address": "Mokotów,Warszawa, Jana III Sobieskiego",
        "district": "Mokotów,Warszawa",
        "id": "535170455",
        "latitude": 52.1854939,
        "link": "https://www.gumtree.pl/a-mieszkania-i-domy-sprzedam-i-kupie/mokotow/bezposrednio-sprzedam-mieszkanie-45-65-m-3-pokoje-mokotow-sobieskiego/1005351704550912429981409",
        "longitude": 21.0524269,
        "precise": false,
        "title": "Bezpośrednio, sprzedam mieszkanie 45,65 m, 3 pokoje, Mokotów, Sobieskiego"
    },
    {
        "address": "Praga Południe,Warszawa,  Witolińska 6",
        "district": "Praga Południe,Warszawa",
        "id": "535250121",
        "latitude": 52.2392361,
        "link": "https://www.gumtree.pl/a-mieszkania-i-domy-sprzedam-i-kupie/praga-poludnie/witolinska-6-dobra-komunikacja-ladny-rozklad-niska-cena/1005352501210911445401309",
        "longitude": 21.1124055,
        "precise": true,
        "title": "Witolińska 6 dobra komunikacja  / ładny rozkład / niska cena"
    },
    {
        "address": "Mokotów,Warszawa, Modzelewskiego 96",
        "district": "Mokotów,Warszawa",
        "id": "535254127",
        "latitude": 52.1899299,
        "link": "https://www.gumtree.pl/a-mieszkania-i-domy-sprzedam-i-kupie/mokotow/mokotow+-dwa-pokoje-przy-metrze-wierzbno/1005352541270911424332009",
        "longitude": 21.0147021,
        "precise": true,
        "title": "Mokotów- dwa pokoje przy metrze Wierzbno"
    },
    {
        "address": "Bielany,Warszawa, Podlesnej ",
        "district": "Bielany,Warszawa",
        "id": "535337125",
        "latitude": 52.2843323,
        "link": "https://www.gumtree.pl/a-mieszkania-i-domy-sprzedam-i-kupie/bielany/dwa-pokoje-przy-awfie/1005353371250911415491209",
        "longitude": 20.9689315,
        "precise": false,
        "title": "Dwa pokoje przy AWFie"
    },
    {
        "address": null,
        "district": "Żoliborz,Warszawa",
        "id": "535353858",
        "link": "https://www.gumtree.pl/a-mieszkania-i-domy-sprzedam-i-kupie/zoliborz/bezposrednio-+-mieszkanie-do-remontu-53-m2-3-pokoje-broniewskiego-53-piaski/1005353538580911362000409",
        "title": "BEZPOŚREDNIO - Mieszkanie do remontu 53 m2. 3 pokoje  Broniewskiego 53 Piaski"
    },
    {
        "address": "Praga Południe,Warszawa, Ostrobramska",
        "district": "Praga Południe,Warszawa",
        "id": "535737275",
        "latitude": 52.23432159999999,
        "link": "https://www.gumtree.pl/a-mieszkania-i-domy-sprzedam-i-kupie/praga-poludnie/sprzedam-mieszkanie-3+pokojowe-61-7-mkw-pr-pld/1005357372750912429818609",
        "longitude": 21.1033323,
        "precise": false,
        "title": "Sprzedam mieszkanie 3-pokojowe 61,7 mkw Pr. Płd."
    }
]