[
    {
        "address": "Żoliborz,Warszawa, Elbląskiej ",
        "district": "Żoliborz,Warszawa",
        "id": "529937570",
        "latitude": 52.2621318,
        "link": "https://www.gumtree.pl/a-mieszkania-i-domy-sprzedam-i-kupie/zoliborz/mieszkanie-na-sprzedaz-bezposrednio-ul-elblaska-warszawa-41m/1005299375700910541742609",
        "longitude": 20.962683000000002,
        "precise": false,
        "title": " Mieszkanie na sprzedaż bezpośrednio, ul. Elbląska, Warszawa, 41m "
    },
    {
        "address": "Mokotów,Warszawa, Cybernetyki ",
        "district": "Mokotów,Warszawa",
        "id": "530021561",
        "latitude": 52.177620999999995,
        "link": "https://www.gumtree.pl/a-mieszkania-i-domy-sprzedam-i-kupie/mokotow/mokotow-+41-57-m2-+2-pokoje-+2-balkony+garaz-+zakonczenie-bud-10-2019-r-+-pietro-6-6+-bezposrednio/1005300215610910468739609",
        "longitude": 20.9923768,
        "precise": false,
        "title": "MOKOTÓW -41,57 m2 -2 POKOJE -2 BALKONY-GARAŻ -Zakończenie Bud. 10.2019 r. - piętro 6/6- BEZPOŚREDNIO"
    },
    {
        "address": "Wola,Warszawa, Karlińskiego",
        "district": "Wola,Warszawa",
        "id": "530419090",
        "latitude": 52.224627,
        "link": "https://www.gumtree.pl/a-mieszkania-i-domy-sprzedam-i-kupie/wola/2-pokoje-w-apartamentowcu-na-odolanach-9270zl-m2/1005304190900910547339909",
        "longitude": 20.9345461,
        "precise": false,
        "title": " 2 pokoje w apartamentowcu na Odolanach, 9270zł/m2 "
    },
    {
        "address": "Praga Południe,Warszawa,  Witolińska 6",
        "district": "Praga Południe,Warszawa",
        "id": "530533203",
        "latitude": 52.2392361,
        "link": "https://www.gumtree.pl/a-mieszkania-i-domy-sprzedam-i-kupie/praga-poludnie/bezposrednio-sprzedam-m3-ladny-rozklad-db-komunikacja-remont-witolinska/1005305332030911445401309",
        "longitude": 21.1124055,
        "precise": true,
        "title": "Bezpośrednio sprzedam M3 ładny rozkład, db. komunikacja, remont Witolińska"
    },
    {
        "address": "Śródmieście,Warszawa, Dzika",
        "district": "Śródmieście,Warszawa",
        "id": "530713601",
        "latitude": 52.2536179,
        "link": "https://www.gumtree.pl/a-mieszkania-i-domy-sprzedam-i-kupie/srodmiescie/ladne-2+pokojowe-studio-dobra-cena-idealna-inwestycja-pod-wynajem/1005307136010912394708409",
        "longitude": 20.9847964,
        "precise": false,
        "title": "Ładne 2-pokojowe studio.  Dobra cena, idealna inwestycja pod wynajem"
    },
    {
        "address": "Żoliborz,Warszawa, opalińska",
        "district": "Żoliborz,Warszawa",
        "id": "530779205",
        "latitude": 52.2628089,
        "link": "https://www.gumtree.pl/a-mieszkania-i-domy-sprzedam-i-kupie/zoliborz/odstapie-partycypacje-+-tbs/1005307792050912426819209",
        "longitude": 20.9567235,
        "precise": false,
        "title": "Odstąpię partycypację - TBS"
    }
]