[
    {
        "address": "Targówek,Warszawa, Rembielińskiej",
        "district": "Targówek,Warszawa",
        "id": "531031844",
        "latitude": 52.2900976,
        "link": "https://www.gumtree.pl/a-mieszkania-i-domy-sprzedam-i-kupie/targowek/sprzedam-mieszkanie-57-5-m-targowek-brodno/1005310318440910478089009",
        "longitude": 21.0299266,
        "precise": false,
        "title": "Sprzedam mieszkanie 57,5 m Targówek Bródno"
    },
    {
        "address": "Mokotów,Warszawa, Dolnej",
        "district": "Mokotów,Warszawa",
        "id": "531147884",
        "latitude": 52.2011721,
        "link": "https://www.gumtree.pl/a-mieszkania-i-domy-sprzedam-i-kupie/mokotow/3-pokojowe-mieszkanie-+-47-m2-na-inwestycje/1005311478840910657363109",
        "longitude": 21.030103999999998,
        "precise": false,
        "title": "3 pokojowe mieszkanie - 47 m2 na inwestycję"
    },
    {
        "address": "Żoliborz,Warszawa, Marymonckiej",
        "district": "Żoliborz,Warszawa",
        "id": "531152584",
        "latitude": 52.2893609,
        "link": "https://www.gumtree.pl/a-mieszkania-i-domy-sprzedam-i-kupie/zoliborz/udzial-w-domu-apartamencie-na-wynajem-krotkoterminowy/1005311525840910574597209",
        "longitude": 20.9517132,
        "precise": false,
        "title": "Udział w domu (apartamencie) na wynajem krótkoterminowy"
    },
    {
        "address": "Mokotów,Warszawa, Oskara Langego",
        "district": "Mokotów,Warszawa",
        "id": "531398242",
        "latitude": 52.1819173,
        "link": "https://www.gumtree.pl/a-mieszkania-i-domy-sprzedam-i-kupie/mokotow/2-pokoje-na-mokotowie-w-doskonalej-lokalizacji/1005313982420910470797009",
        "longitude": 21.0094079,
        "precise": false,
        "title": "2 pokoje na Mokotowie w doskonałej lokalizacji"
    }
]