[
    {
        "address": "Warszawa, Ursynów, ul. Nowoursynowska",
        "district": "Warszawa, Ursynów",
        "id": "519519679",
        "latitude": 52.1561638,
        "link": "https://www.otodom.pl/oferta/mieszkanie-dwupokojowe-45-89-m2-ursynow-ID3VVVU.html?",
        "longitude": 21.0548345,
        "precise": false,
        "title": "Mieszkanie dwupokojowe 45,89 m2 Ursynów"
    },
    {
        "address": "Warszawa, Praga-Północ, Kijowska ",
        "district": "Warszawa, Praga-Północ",
        "id": "536618233",
        "latitude": 52.2530273,
        "link": "https://www.olx.pl/oferta/mieszkanie-2-pokojowe-praga-polnoc-bezposrednio-CID3-IDAjAUN.html#343ed7b49d",
        "longitude": 21.0488235,
        "precise": false,
        "title": "Mieszkanie 2 pokojowe - Praga Północ. Bezpośrednio!"
    },
    {
        "address": "Warszawa, Śródmieście, al. Aleja Jana Pawła II",
        "district": "Warszawa, Śródmieście",
        "id": "536652286",
        "latitude": 52.24483369999999,
        "link": "https://www.otodom.pl/oferta/promocja-2-pokoje-bezposrednio-rondo-onz-40m2-ID413lb.html?",
        "longitude": 20.991902600000003,
        "precise": false,
        "title": "PROMOCJA, 2 pokoje Bezpośrednio! Rondo ONZ, 40m2"
    },
    {
        "address": "Warszawa, Praga-Południe, ul. Osowska",
        "district": "Warszawa, Praga-Południe",
        "id": "536667259",
        "latitude": 52.2460748,
        "link": "https://www.otodom.pl/oferta/mieszkanie-39-m-2-2-pokoje-parter-wysokosc-3-m-ID413rs.html?",
        "longitude": 21.104068,
        "precise": false,
        "title": "Mieszkanie 39 m 2, 2 pokoje, parter, wysokość 3 m."
    },
    {
        "address": null,
        "district": "Warszawa, Ochota",
        "id": "536667605",
        "link": "https://www.olx.pl/oferta/piekne-po-remoncie-mieszkanie-na-ochocie-2pokoje-widna-kuchnia-balkon-CID3-IDAjNL7.html#343ed7b49d",
        "title": "Piekne po remoncie mieszkanie na Ochocie 2pokoje widna kuchnia balkon"
    },
    {
        "address": null,
        "district": "Warszawa, Praga-Północ",
        "id": "536677092",
        "link": "https://www.otodom.pl/oferta/sprzedam-2-pokoje-super-lokalizacja-tramwaj-ciche-ID413ue.html?",
        "title": "Sprzedam 2 pokoje_super lokalizacja_tramwaj_CICHE!"
    },
    {
        "address": "Warszawa, Targówek, Malborska",
        "district": "Warszawa, Targówek",
        "id": "536699748",
        "latitude": 52.2999404,
        "link": "https://www.olx.pl/oferta/przytulne-46m2-odswiezone-komfortowe-funkcjonalne-brodno-metro-CID3-IDAjV7y.html#343ed7b49d",
        "longitude": 21.065530099999997,
        "precise": false,
        "title": "Przytulne 46m2 odświeżone komfortowe funkcjonalne Bródno Metro"
    }
]