[
    {
        "address": "Warszawa, Śródmieście, Geodezyjna Warszawa",
        "district": "Warszawa, Śródmieście",
        "id": "537641690",
        "latitude": 52.223453,
        "link": "https://www.olx.pl/oferta/sprzedam-mieszkanie-ul-geodezyjna-warszawa-CID3-IDAnTaa.html#343ed7b49d;promoted",
        "longitude": 21.015873199999998,
        "precise": false,
        "title": "Sprzedam mieszkanie ul. Geodezyjna Warszawa"
    },
    {
        "address": "Warszawa, Mokotów, ul. Króżańska",
        "district": "Warszawa, Mokotów",
        "id": "537643366",
        "latitude": 52.203628999999985,
        "link": "https://www.otodom.pl/oferta/lokal-uzytkowy-mieszkalny-sutenera-loft-okazja-ID4189x.html?",
        "longitude": 21.0114285,
        "precise": false,
        "title": "lokal użytkowy, mieszkalny, sutenera, loft, okazja"
    },
    {
        "address": "Warszawa, Mokotów, Kolberga",
        "district": "Warszawa, Mokotów",
        "id": "537647098",
        "latitude": 52.190325,
        "link": "https://www.olx.pl/oferta/sprzedam-bezposrednio-38-20-m2-warszawa-mokotow-ul-kolberga-CID3-IDAnUzo.html#343ed7b49d;promoted",
        "longitude": 21.012813899999998,
        "precise": false,
        "title": "Sprzedam bezpośrednio 38,20 m2, Warszawa Mokotów , ul. Kolberga"
    },
    {
        "address": "Warszawa, Wola, Erazma Ciołka 5",
        "district": "Warszawa, Wola",
        "id": "537672684",
        "latitude": 52.2399172,
        "link": "https://www.otodom.pl/oferta/bezpos-40m2-na-woli-przy-samym-metrze-wysoki-stand-ID418n9.html?",
        "longitude": 20.945556,
        "precise": true,
        "title": "Bezpoś 40m2 na Woli przy Samym Metrze Wysoki Stand"
    },
    {
        "address": "Warszawa, ul. Skarbka z Gór",
        "district": "Warszawa",
        "id": "537680405",
        "latitude": 52.3178627,
        "link": "https://www.otodom.pl/oferta/sprzedam-bezposrednio-ID3YXwy.html?",
        "longitude": 21.060005200000003,
        "precise": false,
        "title": "sprzedam bezpośrednio"
    }
]