[
    {
        "address": "Warszawa, Mokotów, Augustówka ",
        "district": "Warszawa, Mokotów",
        "id": "543351362",
        "latitude": 52.195152799999995,
        "link": "https://www.olx.pl/oferta/sprzedam-nowe-mieszkanie-trzypokojowe-CID3-IDALQwE.html#343ed7b49d;promoted",
        "longitude": 21.0931227,
        "precise": false,
        "title": "Sprzedam nowe mieszkanie trzypokojowe"
    },
    {
        "address": "Warszawa, Bielany, ul. Jana Kochanowskiego",
        "district": "Warszawa, Bielany",
        "id": "543596837",
        "latitude": 52.2695547,
        "link": "https://www.otodom.pl/oferta/pilne-3-pokojowe-mieszkanie-na-bielanach-47-m2-ID41B4B.html?",
        "longitude": 20.9451469,
        "precise": false,
        "title": "PILNE - 3 pokojowe mieszkanie na Bielanach, 47 m2"
    },
    {
        "address": "Warszawa, Praga-Południe, Bora Komorowskiego",
        "district": "Warszawa, Praga-Południe",
        "id": "543611876",
        "latitude": 52.225643,
        "link": "https://www.olx.pl/oferta/sprzedam-mieszkanie-na-goclawiu-petla-autousowa-CID3-IDAMVhu.html#b24cef3d9e",
        "longitude": 21.0891829,
        "precise": false,
        "title": "sprzedam mieszkanie na gocławiu pętla autousowa"
    },
    {
        "address": "Warszawa, Bielany, ul. Marii Dąbrowskiej",
        "district": "Warszawa, Bielany",
        "id": "543670717",
        "latitude": 52.2742611,
        "link": "https://www.otodom.pl/oferta/mieszkanie-3-pokoje-bielany-chomiczowka-metro-ID41Bnl.html?",
        "longitude": 20.933504799999998,
        "precise": false,
        "title": "Mieszkanie 3-pokoje, Bielany, Chomiczówka, Metro!"
    },
    {
        "address": "Warszawa, Śródmieście, ul. Chłodna",
        "district": "Warszawa, Śródmieście",
        "id": "543784889",
        "latitude": 52.237758299999996,
        "link": "https://www.otodom.pl/oferta/sprzedam-mieszkanie-w-centrum-warszawy-ID40LIT.html?",
        "longitude": 20.9883047,
        "precise": false,
        "title": "Sprzedam mieszkanie w Centrum Warszawy"
    },
    {
        "address": "Warszawa, Praga-Południe, Ostrobramskiej ",
        "district": "Warszawa, Praga-Południe",
        "id": "543844873",
        "latitude": 52.235121599999985,
        "link": "https://www.olx.pl/oferta/sprzedam-mieszkanie-47-3m2-ul-ostrobramska-CID3-IDANUTw.html#343ed7b49d",
        "longitude": 21.1025323,
        "precise": false,
        "title": "Sprzedam mieszkanie 47,3m2 ul, Ostrobramska"
    },
    {
        "address": "Warszawa, Praga-Południe, Grochowskiej 200",
        "district": "Warszawa, Praga-Południe",
        "id": "544087511",
        "latitude": 52.2458979,
        "link": "https://www.olx.pl/oferta/mieszkanie-49-90-m2-grochowska-200-rondo-witraczna-praga-poludnie-CID3-IDAOV11.html#343ed7b49d",
        "longitude": 21.0873759,
        "precise": true,
        "title": "Mieszkanie 49,90 M2 Grochowska 200, Rondo Witraczna, Praga Południe"
    }
]