[
    {
        "address": "Warszawa, Bemowo, Wojska Polskiego 12",
        "district": "Warszawa, Bemowo",
        "id": "530309409",
        "latitude": 52.264613,
        "link": "https://www.olx.pl/oferta/30-minut-do-warszawy-mieszkanie-50-m-nowy-dwor-mazowiecki-kazun-nowy-CID3-IDzT7Hz.html#5fa211394e;promoted",
        "longitude": 20.992642,
        "precise": true,
        "title": "30 minut do Warszawy mieszkanie 50 m² Nowy Dwór Mazowiecki Kazuń Nowy"
    },
    {
        "address": "Warszawa, Mokotów, ul. Wiktorska",
        "district": "Warszawa, Mokotów",
        "id": "532887398",
        "latitude": 52.1993577,
        "link": "https://www.otodom.pl/oferta/bezposrednio-stary-mokotow-2min-od-metra-ID40JP5.html?",
        "longitude": 21.013482900000003,
        "precise": false,
        "title": "Bezpośrednio-Stary Mokotów-2min od metra"
    },
    {
        "address": "Warszawa, Praga-Południe, Garwolińska",
        "district": "Warszawa, Praga-Południe",
        "id": "535124829",
        "latitude": 52.249000300000006,
        "link": "https://www.olx.pl/oferta/mieszkanie-z-2-pokojami-38-m2-ul-garwolinska-praga-poludnie-CID3-IDAdkpD.html#343ed7b49d",
        "longitude": 21.0924454,
        "precise": false,
        "title": "Mieszkanie z 2 pokojami, 38 m2, ul. Garwolińska, Praga Południe"
    },
    {
        "address": "Warszawa, Wola, ul. Erazma Ciołka",
        "district": "Warszawa, Wola",
        "id": "535161326",
        "latitude": 52.2430938,
        "link": "https://www.otodom.pl/oferta/50-m2-3-oddzielne-pokoje-uregulowane-grunty-ID40WB3.html?",
        "longitude": 20.9455318,
        "precise": false,
        "title": "50 m2 - 3 oddzielne pokoje - uregulowane grunty"
    },
    {
        "address": "Warszawa, Targówek, Turmoncka 16",
        "district": "Warszawa, Targówek",
        "id": "535182540",
        "latitude": 52.2976369,
        "link": "https://www.otodom.pl/oferta/zadbane-3-pokojowe-mieszkanie-47m2-ul-turmoncka-ID40WGT.html?",
        "longitude": 21.039058,
        "precise": true,
        "title": "Zadbane 3 pokojowe mieszkanie 47m2,ul. Turmoncka"
    },
    {
        "address": "Warszawa, Targówek, Wspólnej\r",
        "district": "Warszawa, Targówek",
        "id": "535191103",
        "latitude": 52.2830819,
        "link": "https://www.otodom.pl/oferta/ostatnie-mieszkanie-97m2-promocja-4-000-zl-m2-ID40UnA.html?",
        "longitude": 21.066167800000002,
        "precise": false,
        "title": "OSTATNIE mieszkanie 97m2. PROMOCJA! 4 000 zł/m2."
    },
    {
        "address": "Warszawa, Ursynów, Kabaty, Imielin, ul. Kazury 2D",
        "district": "Warszawa, Ursynów",
        "id": "535200943",
        "latitude": 52.1387674,
        "link": "https://www.otodom.pl/oferta/ciche-wysoki-parter-duzy-ogrodek-ursynow-kabaty-ID40WT3.html?;promoted",
        "longitude": 21.04643,
        "precise": true,
        "title": "CICHE! wysoki parter DUŻY OGRÓDEK! ursynów kabaty"
    }
]