[
    {
        "address": "Warszawa, Ursynów, ul. Arakowa",
        "district": "Warszawa, Ursynów",
        "id": "517831242",
        "latitude": 52.115437400000005,
        "link": "https://www.otodom.pl/oferta/mieszkanie-61-83m2-zamienie-arakowa-ID3TX8M.html?",
        "longitude": 20.9730862,
        "precise": false,
        "title": "Mieszkanie 61.83m2 Zamienie/Arakowa"
    },
    {
        "address": null,
        "district": "Warszawa, Bielany",
        "id": "539306753",
        "link": "https://www.olx.pl/oferta/sprzedam-mieszkanie-3-pokoje-przy-stacji-metra-mlociny-CID3-IDAuSk1.html#b23726229c",
        "title": "Sprzedam Mieszkanie 3 Pokoje Przy Stacji Metra Mlociny."
    },
    {
        "address": "Warszawa, Praga-Północ, Wileńskiej",
        "district": "Warszawa, Praga-Północ",
        "id": "540834116",
        "latitude": 52.2581206,
        "link": "https://www.otodom.pl/oferta/2-3-pokoje-metro-nowe-budownictwo-ID41nXA.html?",
        "longitude": 21.0409514,
        "precise": false,
        "title": "2/3 pokoje-Metro-nowe budownictwo"
    },
    {
        "address": null,
        "district": "Warszawa, Praga-Południe",
        "id": "540859881",
        "link": "https://www.olx.pl/oferta/widne-dwa-pokoje-z-kuchnia-pl-szembeka-CID3-IDABomt.html#b24cef3d9e",
        "title": "WIDNE dwa pokoje z kuchnia PL.SZEMBEKA"
    },
    {
        "address": "Warszawa, Żoliborz, Swarzewska",
        "district": "Warszawa, Żoliborz",
        "id": "540903110",
        "latitude": 52.2788444,
        "link": "https://www.olx.pl/oferta/1938-kamienica-ciche-jasne-wysokie-parking-do-remontu-CID3-IDABzBI.html#b24cef3d9e",
        "longitude": 20.9543594,
        "precise": false,
        "title": "1938 kamienica, ciche, jasne, wysokie, PARKING!, do remontu"
    },
    {
        "address": "Warszawa, Bielany, Kasprowicza",
        "district": "Warszawa, Bielany",
        "id": "540913023",
        "latitude": 52.284394600000006,
        "link": "https://www.otodom.pl/oferta/sprzedam-mieszkanie-3-pokojowe-metro-mlociny-ID40XUr.html?",
        "longitude": 20.9436442,
        "precise": false,
        "title": "Sprzedam Mieszkanie 3 pokojowe Metro Mlociny"
    },
    {
        "address": "Warszawa, Praga-Południe, Gocławek",
        "district": "Warszawa, Praga-Południe",
        "id": "540942871",
        "latitude": 52.2378584,
        "link": "https://www.otodom.pl/oferta/nowe-goclawek-w-budynku-8-mieszkaniowym-ID41oxb.html?",
        "longitude": 21.131369999999997,
        "precise": false,
        "title": "Nowe Gocławek w budynku 8-mieszkaniowym"
    },
    {
        "address": "Warszawa, Bielany, ul. Jana Kochanowskiego",
        "district": "Warszawa, Bielany",
        "id": "541041667",
        "latitude": 52.2689547,
        "link": "https://www.otodom.pl/oferta/dwupokojowe-mieszkanie-przy-ulicy-kochanowskiego-ID3Xar6.html?",
        "longitude": 20.946046900000002,
        "precise": false,
        "title": "Dwupokojowe mieszkanie przy ulicy Kochanowskiego"
    },
    {
        "address": "Warszawa, Ochota, ul. Pruszkowska",
        "district": "Warszawa, Ochota",
        "id": "541134287",
        "latitude": 52.2019074,
        "link": "https://www.otodom.pl/oferta/mieszkanie-2-pokojowe-ochota-ul-pruszkowska-ID41p25.html?",
        "longitude": 20.9795006,
        "precise": false,
        "title": "Mieszkanie 2-pokojowe, Ochota, ul. Pruszkowska"
    },
    {
        "address": "Warszawa, Bielany, Nocznickiego 17",
        "district": "Warszawa, Bielany",
        "id": "541199053",
        "latitude": 52.2916205,
        "link": "https://www.olx.pl/oferta/ciche-rewelacyjnie-zlokalizowane-mieszkanie-na-warszawskich-bielanach-CID3-IDACOAZ.html#343ed7b49d",
        "longitude": 20.9324685,
        "precise": true,
        "title": "Ciche, rewelacyjnie zlokalizowane mieszkanie na warszawskich Bielanach"
    },
    {
        "address": "Warszawa, Praga-Południe, Igańskiej ",
        "district": "Warszawa, Praga-Południe",
        "id": "541200717",
        "latitude": 52.2415654,
        "link": "https://www.olx.pl/oferta/sprzedam-mieszkanie-CID3-IDACP1P.html#343ed7b49d;promoted",
        "longitude": 21.0904456,
        "precise": false,
        "title": "sprzedam mieszkanie"
    },
    {
        "address": "Warszawa, Mokotów, Portofino 6",
        "district": "Warszawa, Mokotów",
        "id": "541234267",
        "latitude": 52.176046,
        "link": "https://www.olx.pl/oferta/bezposrednio-mieszkanie-2-pokoje-42m2-stegny-CID3-IDACXKX.html#343ed7b49d",
        "longitude": 21.059843,
        "precise": true,
        "title": "BEZPOŚREDNIO! Mieszkanie 2 pokoje - 42m2, STEGNY"
    },
    {
        "address": "Warszawa, Targówek, ul. Szymona Askenazego",
        "district": "Warszawa, Targówek",
        "id": "541244456",
        "latitude": 52.27766990000001,
        "link": "https://www.otodom.pl/oferta/mieszkanie-50m2-2pok-metro-targowek-ID41pjh.html?",
        "longitude": 21.056420999999997,
        "precise": false,
        "title": "Mieszkanie 50m2, 2pok. METRO, Targówek"
    },
    {
        "address": "Warszawa, Bielany, ul. Tomasza Nocznickiego",
        "district": "Warszawa, Bielany",
        "id": "541267802",
        "latitude": 52.290187399999986,
        "link": "https://www.otodom.pl/oferta/ciche-rewelacyjnie-zlokalizowane-mieszkanie-ID41pcc.html?",
        "longitude": 20.929962500000002,
        "precise": false,
        "title": "Ciche, rewelacyjnie zlokalizowane mieszkanie"
    },
    {
        "address": "Warszawa, Ochota, ul. Władysława Korotyńskiego",
        "district": "Warszawa, Ochota",
        "id": "541268428",
        "latitude": 52.2016784,
        "link": "https://www.otodom.pl/oferta/bezposrednio-3pok-44m2-na-ochocie-do-zamieszkania-ID41pnV.html?",
        "longitude": 20.975063000000002,
        "precise": false,
        "title": "BEZPOŚREDNIO 3pok. 44m2 na OCHOCIE do zamieszkania"
    },
    {
        "address": "Warszawa, Wola, ul. Deotymy",
        "district": "Warszawa, Wola",
        "id": "541294387",
        "latitude": 52.2435742,
        "link": "https://www.otodom.pl/oferta/swietny-rozklad-i-lokalizacja-kameralny-budynek-ID41pwz.html?",
        "longitude": 20.9482706,
        "precise": false,
        "title": "Świetny rozkład i lokalizacja! Kameralny budynek"
    },
    {
        "address": "Warszawa, Praga-Południe, Rapperswilskiej",
        "district": "Warszawa, Praga-Południe",
        "id": "541295030",
        "latitude": 52.227130100000004,
        "link": "https://www.olx.pl/oferta/mieszkanie-saska-kepa-2-pokoje-CID3-IDADdz0.html#343ed7b49d",
        "longitude": 21.061569000000002,
        "precise": false,
        "title": "Mieszkanie Saska Kepa 2 pokoje"
    }
]