[
    {
        "address": "Praga Południe,Warszawa, Ostrobramska\r",
        "district": "Praga Południe,Warszawa",
        "id": "453527398",
        "latitude": 52.23502159999999,
        "link": "https://www.gumtree.pl/a-mieszkania-i-domy-sprzedam-i-kupie/praga-poludnie/sprzedam-mieszkanie-ul-ostrobramska/1004535273980912114608809",
        "longitude": 21.1026323,
        "precise": false,
        "title": "Sprzedam mieszkanie ul. Ostrobramska"
    },
    {
        "address": "Bielany,Warszawa, Magiera",
        "district": "Bielany,Warszawa",
        "id": "465729325",
        "latitude": 52.272152500000004,
        "link": "https://www.gumtree.pl/a-mieszkania-i-domy-sprzedam-i-kupie/bielany/rezerwacja-sprzedam-3+pokojowe-mieszkanie-na-bielanach-przy-ul-magiera/1004657293250912245983509",
        "longitude": 20.9502262,
        "precise": false,
        "title": "Rezerwacja: Sprzedam 3-pokojowe mieszkanie na Bielanach przy ul. Magiera"
    },
    {
        "address": null,
        "district": "Ochota,Warszawa",
        "id": "498869981",
        "link": "https://www.gumtree.pl/a-mieszkania-i-domy-sprzedam-i-kupie/ochota/2-pokojowe-mieszkanie-w-swietnej-lokalizacji/1004988699810912405230209",
        "title": "2 pokojowe mieszkanie w świetnej lokalizacji"
    },
    {
        "address": "Warszawa, ul.Rzymowskiego",
        "district": "Mokotów,Warszawa",
        "id": "499194562",
        "latitude": 52.170554800000005,
        "link": "https://www.gumtree.pl/a-mieszkania-i-domy-sprzedam-i-kupie/mokotow/sloneczne-2-pokojowe-mieszkanie-z-aneksem-kuchennym-przy-galerii-mokotow/1004991945620912123364609",
        "longitude": 21.009110099999997,
        "precise": false,
        "title": "Słoneczne 2 pokojowe mieszkanie z aneksem kuchennym przy Galerii Mokotów"
    },
    {
        "address": "Włochy,Warszawa, Chrościckiego 129",
        "district": "Włochy,Warszawa",
        "id": "499360997",
        "latitude": 52.2086832,
        "link": "https://www.gumtree.pl/a-mieszkania-i-domy-sprzedam-i-kupie/wlochy/przestrzenne-mieszkanie-2-pokoje-58-m2-warszawa-wlochy/1004993609970912404658209",
        "longitude": 20.8899565,
        "precise": true,
        "title": "Przestrzenne mieszkanie 2 pokoje 58 m2 Warszawa Włochy"
    },
    {
        "address": "Ursynów,Warszawa, Surowieckiego 12",
        "district": "Ursynów,Warszawa",
        "id": "499386049",
        "latitude": 52.1569873,
        "link": "https://www.gumtree.pl/a-mieszkania-i-domy-sprzedam-i-kupie/ursynow/ogloszenie-o-przetargu/1004993860490910663960209",
        "longitude": 21.0207466,
        "precise": true,
        "title": "Ogłoszenie o przetargu"
    },
    {
        "address": "Ochota,Warszawa, Siewierskiej",
        "district": "Ochota,Warszawa",
        "id": "499641823",
        "latitude": 52.2130264,
        "link": "https://www.gumtree.pl/a-mieszkania-i-domy-sprzedam-i-kupie/ochota/bezposrednio-2-pokoje-sloneczne-stara-ochota-siewierska/1004996418230912405727309",
        "longitude": 20.9757135,
        "precise": false,
        "title": "Bezpośrednio, 2 Pokoje słoneczne Stara Ochota Siewierska"
    },
    {
        "address": "Toruńska 78,  Warszawa, Polska",
        "district": "Praga Północ,Warszawa",
        "id": "499681697",
        "latitude": 52.2968164,
        "link": "https://www.gumtree.pl/a-mieszkania-i-domy-sprzedam-i-kupie/praga-polnoc/brodno-metro-ul-torunska-78-1-4p-ciche-balkon-328000zl/1004996816970910863991709",
        "longitude": 21.0269532,
        "precise": true,
        "title": "Bródno,  Metro, ul. Toruńska 78, 1/4p, ciche, balkon, 328000zł"
    },
    {
        "address": null,
        "district": "Targówek,Warszawa",
        "id": "499730333",
        "link": "https://www.gumtree.pl/a-mieszkania-i-domy-sprzedam-i-kupie/targowek/3-pokoje-oddzielna-kuchnia-metro-2021/1004997303330911414205109",
        "title": "3 pokoje. Oddzielna Kuchnia. Metro 2021. "
    },
    {
        "address": "Praga Południe,Warszawa, Umińskiego ",
        "district": "Praga Południe,Warszawa",
        "id": "499733610",
        "latitude": 52.2274688,
        "link": "https://www.gumtree.pl/a-mieszkania-i-domy-sprzedam-i-kupie/praga-poludnie/bezposrednio-2-pokoje-goclaw-uminskiego/1004997336100910998284709",
        "longitude": 21.1000057,
        "precise": false,
        "title": "Bezpośrednio 2 pokoje Gocław, Umińskiego"
    },
    {
        "address": null,
        "district": "Żoliborz,Warszawa",
        "id": "499745364",
        "link": "https://www.gumtree.pl/a-mieszkania-i-domy-sprzedam-i-kupie/zoliborz/mieszkanie-z-klimatem/1004997453640912405558609",
        "title": "Mieszkanie z klimatem"
    },
    {
        "address": null,
        "district": "Mokotów,Warszawa",
        "id": "499837558",
        "link": "https://www.gumtree.pl/a-mieszkania-i-domy-sprzedam-i-kupie/mokotow/sprzedam-mieszkanie-47m-na-osiedlu-arbuzowa-do-remontu/1004998375580912399435209",
        "title": "Sprzedam mieszkanie 47m na osiedlu Arbuzowa do remontu"
    },
    {
        "address": "Nowoursynowska 139, Warszawa",
        "district": "Ursynów,Warszawa",
        "id": "499902498",
        "latitude": 52.1504163,
        "link": "https://www.gumtree.pl/a-mieszkania-i-domy-sprzedam-i-kupie/ursynow/ursynow-48-m-+-osiedle-strzezone-bezposrednio/1004999024980911362780809",
        "longitude": 21.059612,
        "precise": true,
        "title": "URSYNÓW – 48 m - osiedle strzeżone – bezpośrednio !!!"
    },
    {
        "address": "Targówek,Warszawa, Skrajna 1",
        "district": "Targówek,Warszawa",
        "id": "499906197",
        "latitude": 52.293839,
        "link": "https://www.gumtree.pl/a-mieszkania-i-domy-sprzedam-i-kupie/targowek/pilnie-2-pokoje-po-remoncie-przy-ul-skrajna-1-grunty-uregulowane-metro/1004999061970910473899909",
        "longitude": 21.0174929,
        "precise": true,
        "title": "PILNIE!!! 2 pokoje po remoncie przy ul Skrajna 1, grunty uregulowane METRO"
    },
    {
        "address": "Mokotów,Warszawa, Taśmowej",
        "district": "Mokotów,Warszawa",
        "id": "500004996",
        "latitude": 52.180429100000005,
        "link": "https://www.gumtree.pl/a-mieszkania-i-domy-sprzedam-i-kupie/mokotow/dwupokojowe-mieszkanie-przy-galerii-mokotow/1005000049960910661648009",
        "longitude": 20.9909368,
        "precise": false,
        "title": "dwupokojowe mieszkanie przy Galerii Mokotów "
    },
    {
        "address": "Mokotów,Warszawa, Taśmowej",
        "district": "Mokotów,Warszawa",
        "id": "500008793",
        "latitude": 52.1799291,
        "link": "https://www.gumtree.pl/a-mieszkania-i-domy-sprzedam-i-kupie/mokotow/dwupokojowe-mieszkanie-przy-ul-tasmowej/1005000087930910661648009",
        "longitude": 20.990336799999998,
        "precise": false,
        "title": "Dwupokojowe mieszkanie przy ul. Taśmowej"
    },
    {
        "address": "Mokotów,Warszawa, Taśmowej",
        "district": "Mokotów,Warszawa",
        "id": "500118808",
        "latitude": 52.1803291,
        "link": "https://www.gumtree.pl/a-mieszkania-i-domy-sprzedam-i-kupie/mokotow/dwupokojowe-mieszkanie-przy-galerii-mokotow/1005001188080910661648009",
        "longitude": 20.9909368,
        "precise": false,
        "title": "Dwupokojowe mieszkanie przy galerii Mokotów"
    },
    {
        "address": "Praga Południe,Warszawa, Łukowskiej 15",
        "district": "Praga Południe,Warszawa",
        "id": "500219204",
        "latitude": 52.2359819,
        "link": "https://www.gumtree.pl/a-mieszkania-i-domy-sprzedam-i-kupie/praga-poludnie/mieszkanie-na-goclawiu-+-bezposrednio-niedrogo-do-remontu-agencjom-nieruchomosci-dziekuje/1005002192040910586723209",
        "longitude": 21.1037023,
        "precise": true,
        "title": "Mieszkanie na Gocławiu - bezpośrednio, niedrogo, do remontu. Agencjom nieruchomości dziękuję!!!"
    },
    {
        "address": "Praga Południe,Warszawa, Dwernickiego 26",
        "district": "Praga Południe,Warszawa",
        "id": "500295313",
        "latitude": 52.2508205,
        "link": "https://www.gumtree.pl/a-mieszkania-i-domy-sprzedam-i-kupie/praga-poludnie/3-pok-w-spokojnej-zielonej-okolicy-rondo-wiatraczna-praga+poludnie/1005002953130912406283009",
        "longitude": 21.0792258,
        "precise": true,
        "title": "3 pok w spokojnej, zielonej okolicy Rondo Wiatraczna, Praga-Południe"
    },
    {
        "address": "Praga Południe,Warszawa, Umińskiego ",
        "district": "Praga Południe,Warszawa",
        "id": "500471362",
        "latitude": 52.2265688,
        "link": "https://www.gumtree.pl/a-mieszkania-i-domy-sprzedam-i-kupie/praga-poludnie/ustawne-2-pokoje-z-widokiem-na-zielen-20-min-do-centrum-przy-promenadzie/1005004713620912401278409",
        "longitude": 21.1001057,
        "precise": false,
        "title": "Ustawne 2 pokoje z widokiem na zieleń/ 20 min do Centrum/przy Promenadzie "
    },
    {
        "address": null,
        "district": "Śródmieście,Warszawa",
        "id": "500498705",
        "link": "https://www.gumtree.pl/a-mieszkania-i-domy-sprzedam-i-kupie/srodmiescie/56m2-warszawa-solidarnosci/1005004987050912406294709",
        "title": "56m2 Warszawa solidarności "
    },
    {
        "address": "Targówek,Warszawa, Wyszogrodzka-Park Bródnowski",
        "district": "Targówek,Warszawa",
        "id": "500562027",
        "latitude": 52.2906686,
        "link": "https://www.gumtree.pl/a-mieszkania-i-domy-sprzedam-i-kupie/targowek/targowek+ul-wyszogrodzka-3-pok-widna-kuchnia-balkon-piwnica-po-remoncie-+397tys/1005005620270910944401209",
        "longitude": 21.0378218,
        "precise": false,
        "title": "Targówek-ul.Wyszogrodzka,3 pok.,widna kuchnia,balkon,piwnica,PO REMONCIE!!!-397tys."
    },
    {
        "address": "Bemowo,Warszawa, Puszczy Solskiej",
        "district": "Bemowo,Warszawa",
        "id": "500578550",
        "latitude": 52.227651200000004,
        "link": "https://www.gumtree.pl/a-mieszkania-i-domy-sprzedam-i-kupie/bemowo/pilnie-sprzedam-mieszkanie/1005005785500910484906609",
        "longitude": 20.9090548,
        "precise": false,
        "title": "Pilnie sprzedam mieszkanie"
    }
]