[
    {
        "address": "Praga Południe,Warszawa,  Saska Kępa",
        "district": "Praga Południe,Warszawa",
        "id": "521735406",
        "latitude": 52.232565199999996,
        "link": "https://www.gumtree.pl/a-mieszkania-i-domy-sprzedam-i-kupie/praga-poludnie/saska-kepa-tu-kazdy-chce-mieszkac-loggia/1005217354060912105990309",
        "longitude": 21.061404699999997,
        "precise": false,
        "title": "SASKA KĘPA TU KAŻDY CHCĘ MIESZKAĆ LOGGIA"
    },
    {
        "address": "Bielany,Warszawa, ul.RENESANSOWA 17/113",
        "district": "Bielany,Warszawa",
        "id": "522089623",
        "latitude": 52.2768856,
        "link": "https://www.gumtree.pl/a-mieszkania-i-domy-sprzedam-i-kupie/bielany/zeromskiego+2-pokoje/1005220896230910665922709",
        "longitude": 20.9344293,
        "precise": true,
        "title": "Żeromskiego-2 pokoje"
    },
    {
        "address": "Ursynów,Warszawa, Nowoursynowska 139 ",
        "district": "Ursynów,Warszawa",
        "id": "522247613",
        "latitude": 52.1504163,
        "link": "https://www.gumtree.pl/a-mieszkania-i-domy-sprzedam-i-kupie/ursynow/ursynow-dwa-pok-48-m-+-osiedle-strzezone-bezposrednio/1005222476130911362780809",
        "longitude": 21.059612,
        "precise": true,
        "title": "URSYNÓW – dwa pok. 48 m - osiedle strzeżone – bezpośrednio !!!"
    },
    {
        "address": "Mokotów,Warszawa, Oskara Langego",
        "district": "Mokotów,Warszawa",
        "id": "522261306",
        "latitude": 52.1815173,
        "link": "https://www.gumtree.pl/a-mieszkania-i-domy-sprzedam-i-kupie/mokotow/2-pokoje-na-mokotowie-w-doskonalej-lokalizacji/1005222613060910470797009",
        "longitude": 21.0091079,
        "precise": false,
        "title": "2 pokoje na Mokotowie w doskonałej lokalizacji"
    }
]