[
    {
        "address": "Mokotów,Warszawa, Etiudy Rewolucyjnej ",
        "district": "Mokotów,Warszawa",
        "id": "544424642",
        "latitude": 52.1914991,
        "link": "https://www.gumtree.pl/a-mieszkania-i-domy-sprzedam-i-kupie/mokotow/mieszkanie-sprzedam-mokotow-okolice-metra-etiudy-rewolucyjnej/1005444246420912435764909",
        "longitude": 20.99027,
        "precise": false,
        "title": "Mieszkanie sprzedam, Mokotow, okolice metra, Etiudy Rewolucyjnej"
    },
    {
        "address": "Praga Południe,Warszawa, Jugosłowiańska 15A",
        "district": "Praga Południe,Warszawa",
        "id": "544594245",
        "latitude": 52.2201302,
        "link": "https://www.gumtree.pl/a-mieszkania-i-domy-sprzedam-i-kupie/praga-poludnie/2-pokojowe-38-7m2-osiedle-adria-2012-goclaw-ul-jugoslowianska/1005445942450911114380009",
        "longitude": 21.095312,
        "precise": true,
        "title": "2 pokojowe 38,7m2 Osiedle ADRIA 2012 Gocław ul. Jugosłowiańska"
    },
    {
        "address": "Wola,Warszawa, Obozowej ",
        "district": "Wola,Warszawa",
        "id": "544644865",
        "latitude": 52.2472813,
        "link": "https://www.gumtree.pl/a-mieszkania-i-domy-sprzedam-i-kupie/wola/mieszkanie-2-pokoje-46-5m-warszawa-ul-ozarowska/1005446448650912436271109",
        "longitude": 20.955333600000003,
        "precise": false,
        "title": "mieszkanie 2 pokoje 46,5m Warszawa ul.Ożarowska "
    },
    {
        "address": "Żoliborz,Warszawa, Jasnodworska 13",
        "district": "Żoliborz,Warszawa",
        "id": "545054618",
        "latitude": 52.262668,
        "link": "https://www.gumtree.pl/a-mieszkania-i-domy-sprzedam-i-kupie/zoliborz/zielony-zoliborz-41-5-m2/1005450546180910726688009",
        "longitude": 20.957649,
        "precise": true,
        "title": "Zielony Żoliborz 41,5 m2"
    }
]