[
    {
        "address": "Warszawa, Ochota, ul. Barska",
        "district": "Warszawa, Ochota",
        "id": "526596862",
        "latitude": 52.2196712,
        "link": "https://www.otodom.pl/oferta/zielen-cisza-i-klimat-starej-ochoty-ID3Z0LO.html?",
        "longitude": 20.9798301,
        "precise": false,
        "title": "Zieleń,cisza i klimat Starej Ochoty !!!"
    },
    {
        "address": "Warszawa, Praga-Południe, ul. Budrysów",
        "district": "Warszawa, Praga-Południe",
        "id": "534672696",
        "latitude": 52.2373895,
        "link": "https://www.otodom.pl/oferta/sloneczne-ladne-mieszkanie-po-remoncie-grochow-ID40SAA.html?",
        "longitude": 21.0919259,
        "precise": false,
        "title": "Słoneczne, ładne mieszkanie po remoncie – Grochów"
    },
    {
        "address": "Warszawa, Bemowo, ul. Babimojska",
        "district": "Warszawa, Bemowo",
        "id": "534702354",
        "latitude": 52.2455864,
        "link": "https://www.otodom.pl/oferta/do-zamieszkania-blisko-wola-parku-bezposrednio-ID3Yn2I.html?",
        "longitude": 20.924176699999997,
        "precise": false,
        "title": "Do zamieszkania, blisko Wola Parku, bezpośrednio"
    },
    {
        "address": "Warszawa, Praga-Południe, ul. Międzynarodowa ",
        "district": "Warszawa, Praga-Południe",
        "id": "534871636",
        "latitude": 52.23873369999999,
        "link": "https://www.otodom.pl/oferta/miedzynarodowa-2-pokoje-38-m-bezposrednio-ID40TG6.html?",
        "longitude": 21.0639066,
        "precise": false,
        "title": "Międzynarodowa, 2 pokoje, 38 m. Bezpośrednio"
    }
]