[
    {
        "address": null,
        "district": "Warszawa, Wola",
        "id": "496269786",
        "link": "https://www.olx.pl/oferta/wola-park-metro-obok-2-pokoje-CID3-IDxAiro.html#7226bf74b5",
        "title": "Wola Park, metro obok, 2 pokoje"
    },
    {
        "address": null,
        "district": "Warszawa, Włochy",
        "id": "509857442",
        "link": "https://www.olx.pl/oferta/mieszkanie-42m2-nowe-wlochy-cena-wraz-z-garazem-komorka-dwa-balkony-CID3-IDywjd8.html#21aaa1c267",
        "title": "Mieszkanie 42m2 Nowe Włochy cena wraz z Garażem+komórką+ dwa balkony"
    },
    {
        "address": "Warszawa, Praga-Południe, Ostrobramska",
        "district": "Warszawa, Praga-Południe",
        "id": "517832520",
        "latitude": 52.23452159999999,
        "link": "https://www.olx.pl/oferta/2-pokoje-kuchnia-po-remoncie-ul-ostrobramska-CID3-IDz2LTq.html#7226bf74b5",
        "longitude": 21.1027323,
        "precise": false,
        "title": "2 pokoje + kuchnia, po remoncie, ul. Ostrobramska"
    },
    {
        "address": "Warszawa, ul. Podbiałowa",
        "district": "Warszawa",
        "id": "520787177",
        "latitude": 52.1656827,
        "link": "https://www.otodom.pl/oferta/3-4-pokoje-75m2-ogrodek-117-178m2-ul-podbialowa-ID2VUZD.html?",
        "longitude": 21.16741,
        "precise": false,
        "title": "3/4 pokoje 75m2 + ogródek 117-178m2 ul. Podbiałowa"
    },
    {
        "address": null,
        "district": "Warszawa, Wola",
        "id": "525702523",
        "link": "https://www.olx.pl/oferta/mieszkanie-na-sprzedaz-warszawa-wola-wola-tower-10-min-do-centrum-CID3-IDzzNeX.html#7226bf74b5",
        "title": "mieszkanie na sprzedaż - Warszawa Wola, Wola Tower, 10 min. do Centrum"
    },
    {
        "address": "Warszawa, Targówek, Turmonckiej 14",
        "district": "Warszawa, Targówek",
        "id": "528813190",
        "latitude": 52.297529,
        "link": "https://www.olx.pl/oferta/mieszkanie-warszawa-trgowek-CID3-IDzMQt0.html#343ed7b49d",
        "longitude": 21.0379809,
        "precise": true,
        "title": "Mieszkanie Warszawa- Trgówek"
    },
    {
        "address": null,
        "district": "Warszawa, Targówek",
        "id": "529705793",
        "link": "https://www.olx.pl/oferta/piekne-mieszkanie-w-atrakcyjnej-lokalizacji-CID3-IDzQAFP.html#b24cef3d9e",
        "title": "Piękne mieszkanie w atrakcyjnej lokalizacji"
    },
    {
        "address": null,
        "district": "Warszawa, Mokotów",
        "id": "530185627",
        "link": "https://www.olx.pl/oferta/przytulne-mieszkanie-stary-mokotow-CID3-IDzSBw5.html#21aaa1c267",
        "title": "Przytulne Mieszkanie Stary Mokotów"
    },
    {
        "address": "Warszawa, Ochota, Korotyńskiego",
        "district": "Warszawa, Ochota",
        "id": "530370993",
        "latitude": 52.2018784,
        "link": "https://www.olx.pl/oferta/mieszkanie-3-pok-aneks-kuchenny-loggia-bezposrednio-CID3-IDzTnIR.html#343ed7b49d",
        "longitude": 20.974463,
        "precise": false,
        "title": "Mieszkanie 3-pok, aneks kuchenny, loggia, bezpośrednio"
    },
    {
        "address": null,
        "district": "Warszawa, Targówek",
        "id": "530909083",
        "link": "https://www.olx.pl/oferta/mieszkanie-3-pokojowe-bialoleka-bezposrednio-CID3-IDzWDHJ.html#343ed7b49d;promoted",
        "title": "Mieszkanie 3-pokojowe - Białołęka - bezpośrednio!!!"
    },
    {
        "address": "Warszawa, Bielany, al. Aleja Władysława Reymonta",
        "district": "Warszawa, Bielany",
        "id": "531569803",
        "latitude": 52.2772218,
        "link": "https://www.otodom.pl/oferta/al-reymonta-bielany-na-sprzedaz-bezposredni-ID3Ythm.html?",
        "longitude": 20.9391698,
        "precise": false,
        "title": "Al. Reymonta - Bielany - Na Sprzedaż - Bezpośredni"
    },
    {
        "address": "Warszawa, Targówek, Bolesławicka",
        "district": "Warszawa, Targówek",
        "id": "531593691",
        "latitude": 52.28684329999999,
        "link": "https://www.otodom.pl/oferta/2-pokoje-na-brodnie-ID40qjG.html?",
        "longitude": 21.029921,
        "precise": false,
        "title": "2 pokoje na Bródnie"
    },
    {
        "address": "Warszawa, Włochy, ul. Batalionu AK Włochy",
        "district": "Warszawa, Włochy",
        "id": "531713344",
        "latitude": 52.2008402,
        "link": "https://www.otodom.pl/oferta/3-pokoje-w-dobrej-cenie-wlochy-ursus-ID40rnO.html?",
        "longitude": 20.9087081,
        "precise": false,
        "title": "3 pokoje w dobrej cenie Włochy/Ursus"
    },
    {
        "address": "Warszawa, Żoliborz, ul. Elbląska",
        "district": "Warszawa, Żoliborz",
        "id": "531714346",
        "latitude": 52.2619318,
        "link": "https://www.otodom.pl/oferta/bezposrednio-2-pokoje-na-sadach-zoliborskich-ID40rpa.html?",
        "longitude": 20.962383,
        "precise": false,
        "title": "BEZPOŚREDNIO! 2 pokoje na Sadach Żoliborskich"
    },
    {
        "address": "Warszawa, Targówek, ul. Poleska",
        "district": "Warszawa, Targówek",
        "id": "531738638",
        "latitude": 52.2695748,
        "link": "https://www.otodom.pl/oferta/piekne-wysoki-standard-przy-metrze-ID40rQv.html?",
        "longitude": 21.0436689,
        "precise": false,
        "title": "Piękne, wysoki standard przy metrze"
    },
    {
        "address": "Warszawa, Praga-Południe, ul. Bliska",
        "district": "Warszawa, Praga-Południe",
        "id": "531740017",
        "latitude": 52.2501916,
        "link": "https://www.otodom.pl/oferta/11-min-do-centrum-komunikacja-miejska-38-5-m2-ID40rUk.html?",
        "longitude": 21.0574741,
        "precise": false,
        "title": "11 min do centrum komunikacja miejską! 38,5 m2"
    },
    {
        "address": "Warszawa, Bemowo, ul. Lazurowa",
        "district": "Warszawa, Bemowo",
        "id": "531775035",
        "latitude": 52.2331597,
        "link": "https://www.otodom.pl/oferta/bemowo-2-pokoje-stan-idealny-ID40szG.html?",
        "longitude": 20.8971437,
        "precise": false,
        "title": "Bemowo, 2 pokoje, stan idealny"
    },
    {
        "address": "Warszawa, Bemowo, ul. Lajosa Kossutha",
        "district": "Warszawa, Bemowo",
        "id": "531866004",
        "latitude": 52.239023499999995,
        "link": "https://www.otodom.pl/oferta/bemowo-2-pokoje-do-zamieszkania-ID40wsk.html?",
        "longitude": 20.909060099999998,
        "precise": false,
        "title": "Bemowo - 2 pokoje - do zamieszkania"
    },
    {
        "address": null,
        "district": "Warszawa, Targówek",
        "id": "531904056",
        "link": "https://www.olx.pl/oferta/wygodne-mieszkanie-51-m2-gotowe-do-wprowadzenia-warszawa-bezposrednio-CID3-IDzZOxG.html#7226bf74b5",
        "title": "Wygodne mieszkanie 51 m2 gotowe do wprowadzenia, Warszawa BEZPOŚREDNIO"
    },
    {
        "address": "Warszawa, Bielany, Starej Baśni",
        "district": "Warszawa, Bielany",
        "id": "531904730",
        "latitude": 52.2746402,
        "link": "https://www.olx.pl/oferta/bezposrednio-2pokoje-na-bielanach-CID3-IDzZOIy.html#7226bf74b5",
        "longitude": 20.9429354,
        "precise": false,
        "title": "Bezpośrednio 2pokoje na Bielanach"
    },
    {
        "address": "Warszawa, Bemowo, Osmańczyka-Forty Bema",
        "district": "Warszawa, Bemowo",
        "id": "531913909",
        "latitude": 52.25974,
        "link": "https://www.olx.pl/oferta/forty-bema-2-pokoje-39-8m2-bezposrednio-CID3-IDzZR6B.html#7226bf74b5",
        "longitude": 20.931392199999998,
        "precise": false,
        "title": "Forty Bema, 2 pokoje 39,8m2, bezpośrednio"
    },
    {
        "address": "Warszawa, Praga-Południe, Ostrobramskiej ",
        "district": "Warszawa, Praga-Południe",
        "id": "531916708",
        "latitude": 52.235321599999985,
        "link": "https://www.olx.pl/oferta/50-6-m2-po-remoncie-rondo-wiatraczna-CID3-IDzZRPK.html#7226bf74b5",
        "longitude": 21.1029323,
        "precise": false,
        "title": "50,6 m2, po remoncie, Rondo Wiatraczna"
    },
    {
        "address": null,
        "district": "Warszawa, Ochota",
        "id": "531926120",
        "link": "https://www.olx.pl/oferta/bezposrednio-ochota-wlochy-2-pok-38m2-CID3-IDzZUhy.html#343ed7b49d;promoted",
        "title": "Bezpośrednio Ochota/Włochy 2 pok. 38m2"
    },
    {
        "address": null,
        "district": "Warszawa, Włochy",
        "id": "531958663",
        "link": "https://www.otodom.pl/oferta/bezposrednio-ochota-wlochy-2-pok-38m2-ID40xbC.html?",
        "title": "Bezpośrednio Ochota/Włochy 2 pok. 38m2"
    },
    {
        "address": null,
        "district": "Warszawa, Ochota",
        "id": "532000886",
        "link": "https://www.olx.pl/oferta/bezposrednio-ochota-wlochy-3-pok-38m2-CID3-IDA0dJs.html#7226bf74b5",
        "title": "Bezpośrednio Ochota/Włochy 3 pok. 38m2"
    },
    {
        "address": "Warszawa, Bielany, Szegedyńska",
        "district": "Warszawa, Bielany",
        "id": "532080047",
        "latitude": 52.2917564,
        "link": "https://www.olx.pl/oferta/sprzedam-mieszkanie-warszawa-bielany-48-5m-CID3-IDA0ykf.html#7226bf74b5",
        "longitude": 20.9445695,
        "precise": false,
        "title": "Sprzedam mieszkanie: Warszawa Bielany; 48,5m"
    },
    {
        "address": null,
        "district": "Warszawa, Mokotów",
        "id": "532080776",
        "link": "https://www.olx.pl/oferta/mieszkanie-CID3-IDA0yv0.html#7226bf74b5;promoted",
        "title": "Mieszkanie"
    },
    {
        "address": null,
        "district": "Warszawa, Praga-Południe",
        "id": "532122355",
        "link": "https://www.olx.pl/oferta/sprzedam-mieszkanie-w-super-lokalizacji-saska-kepa-CID3-IDA0JkD.html#7226bf74b5",
        "title": "Sprzedam Mieszkanie W Super Lokalizacji (Saska Kępa)"
    },
    {
        "address": "Warszawa, Mokotów, ul. Portofino",
        "district": "Warszawa, Mokotów",
        "id": "532131970",
        "latitude": 52.1770809,
        "link": "https://www.otodom.pl/oferta/3-4-pokojowe-56m-stegny-sloneczne-ID40Byg.html?",
        "longitude": 21.0606072,
        "precise": false,
        "title": "3/4 pokojowe 56m stegny słoneczne"
    },
    {
        "address": "Warszawa, Praga-Południe, Grochowskiej ",
        "district": "Warszawa, Praga-Południe",
        "id": "532183727",
        "latitude": 52.2458097,
        "link": "https://www.otodom.pl/oferta/2-pokoje-38m2-ul-grochowska-rondo-wiatraczna-ID40D72.html?",
        "longitude": 21.0896778,
        "precise": false,
        "title": "2 pokoje,38m2,ul.Grochowska /Rondo Wiatraczna"
    },
    {
        "address": "Warszawa, Żoliborz, Przasnyskiej 11",
        "district": "Warszawa, Żoliborz",
        "id": "532231270",
        "latitude": 52.2606464,
        "link": "https://www.otodom.pl/oferta/mieszkanie-39-m2-warszawa-zoliborz-bezposrednio-ID40E2Q.html?",
        "longitude": 20.9679869,
        "precise": true,
        "title": "Mieszkanie 39 m2, Warszawa, Żoliborz Bezpośrednio"
    },
    {
        "address": "Warszawa, Włochy, ul. Obywatelska",
        "district": "Warszawa, Włochy",
        "id": "532280492",
        "latitude": 52.206924799999996,
        "link": "https://www.otodom.pl/oferta/bardzo-funkcjonalny-apartament-wysoki-standard-ID40Fxm.html?",
        "longitude": 20.8949958,
        "precise": false,
        "title": "Bardzo funkcjonalny apartament, wysoki standard"
    },
    {
        "address": "Warszawa, Bemowo, ul. Synów Pułku",
        "district": "Warszawa, Bemowo",
        "id": "532328112",
        "latitude": 52.2252951,
        "link": "https://www.otodom.pl/oferta/2-pokoje-40m2-blisko-przedszkole-i-szkola-ID40GcE.html?",
        "longitude": 20.9195095,
        "precise": false,
        "title": "2 pokoje 40m2 blisko przedszkole i szkoła"
    },
    {
        "address": "Warszawa, Wola, ul. Żytnia",
        "district": "Warszawa, Wola",
        "id": "532356327",
        "latitude": 52.239567199999996,
        "link": "https://www.otodom.pl/oferta/w-wa-wola-2-pok-cegla-super-rozklad-okazja-ID40vqg.html?",
        "longitude": 20.974165600000003,
        "precise": false,
        "title": "W-wa Wola, 2-pok, cegła, super rozkład, OKAZJA"
    },
    {
        "address": "Warszawa, Targówek, ul. Wyszogrodzka",
        "district": "Warszawa, Targówek",
        "id": "532358682",
        "latitude": 52.2886531,
        "link": "https://www.otodom.pl/oferta/sprzedam-mieszkanie-2pokojowe-ID40GLC.html?",
        "longitude": 21.036001799999998,
        "precise": false,
        "title": "Sprzedam mieszkanie 2pokojowe"
    },
    {
        "address": "Warszawa, Wola, ul. Erazma Ciołka",
        "district": "Warszawa, Wola",
        "id": "532376662",
        "latitude": 52.2431938,
        "link": "https://www.otodom.pl/oferta/2-pokoje-40m2-na-woli-przy-samym-metrze-bezposred-ID40Hor.html?",
        "longitude": 20.9448318,
        "precise": false,
        "title": "2 Pokoje 40m2 na Woli przy samym Metrze Bezpośred."
    },
    {
        "address": "Warszawa, Mokotów, Domaniewskiej",
        "district": "Warszawa, Mokotów",
        "id": "532443883",
        "latitude": 52.1840264,
        "link": "https://www.olx.pl/oferta/3-pokoje-przy-galerii-mokotow-niedaleko-mordor-CID3-IDA24Yz.html#343ed7b49d;promoted",
        "longitude": 21.007573999999998,
        "precise": false,
        "title": "3 pokoje przy Galerii Mokotów, niedaleko Mordor"
    },
    {
        "address": "Warszawa, Bemowo, Obrońców Tobruku ",
        "district": "Warszawa, Bemowo",
        "id": "532483038",
        "latitude": 52.260052800000004,
        "link": "https://www.olx.pl/oferta/bemowo-fort-bema-2-pok-2005-r-balkon-11m-CID3-IDA2fa6.html#b24cef3d9e",
        "longitude": 20.9370529,
        "precise": false,
        "title": "Bemowo Fort Bema 2 pok 2005 r balkon 11m"
    },
    {
        "address": null,
        "district": "Warszawa",
        "id": "532570383",
        "link": "https://www.otodom.pl/oferta/bezposrednio-wola-srodmiescie-ID40Ifb.html?",
        "title": "BEZPOŚREDNIO Wola / Srodmiescie"
    },
    {
        "address": "Warszawa, Wola, Żelaznej ",
        "district": "Warszawa, Wola",
        "id": "532572889",
        "latitude": 52.23556879999999,
        "link": "https://www.otodom.pl/oferta/40-m2-2-pokoje-srodmiescie-wola-bezposrednio-ID40IfC.html?",
        "longitude": 20.991581800000002,
        "precise": false,
        "title": "40 m2 |2 pokoje Śródmieście / Wola | bezpośrednio"
    },
    {
        "address": "Warszawa, Mokotów, Powsińska",
        "district": "Warszawa, Mokotów",
        "id": "532580172",
        "latitude": 52.1863735,
        "link": "https://www.olx.pl/oferta/sprzedam-mieszkanie-warszawa-sadyba-CID3-IDA2EqM.html#b24cef3d9e;promoted",
        "longitude": 21.0650583,
        "precise": false,
        "title": "Sprzedam mieszkanie Warszawa Sadyba"
    },
    {
        "address": "Warszawa, Ochota, Korotyńskiego 42",
        "district": "Warszawa, Ochota",
        "id": "532619539",
        "latitude": 52.2038482,
        "link": "https://www.otodom.pl/oferta/3-pokoje-49m-przy-parku-szczesliwickim-ID3Y6Qv.html?",
        "longitude": 20.9668851,
        "precise": true,
        "title": "3 pokoje 49m przy Parku Szczęśliwickim"
    },
    {
        "address": "Warszawa, Wola, Erazma Ciołka 5",
        "district": "Warszawa, Wola",
        "id": "532726716",
        "latitude": 52.2399172,
        "link": "https://www.olx.pl/oferta/2-pokoje-40m2-na-woli-przy-samym-metrze-bezposrednio-CID3-IDA3gyo.html#343ed7b49d;promoted",
        "longitude": 20.945556,
        "precise": true,
        "title": "2 Pokoje 40m2 na Woli przy samym Metrze Bezpośrednio"
    },
    {
        "address": "Warszawa, Bielany, Doryckiej 2",
        "district": "Warszawa, Bielany",
        "id": "532735606",
        "latitude": 52.296192,
        "link": "https://www.olx.pl/oferta/dorycka-bielany-900m-od-metra-mlociny-CID3-IDA3iRM.html#343ed7b49d;promoted",
        "longitude": 20.9399969,
        "precise": true,
        "title": "Dorycka/Bielany 900m od metra Młociny"
    },
    {
        "address": null,
        "district": "Warszawa, Ochota",
        "id": "532770140",
        "link": "https://www.olx.pl/oferta/sprzedam-mieszkanie-2-pokojowe-ochota-CID3-IDA3rQM.html#343ed7b49d",
        "title": "sprzedam mieszkanie 2 pokojowe Ochota"
    },
    {
        "address": null,
        "district": "Warszawa, Targówek",
        "id": "532845649",
        "link": "https://www.olx.pl/oferta/bez-posrednio-ustawne-mieszkanie-na-sprzedasz-dwa-pokoje-CID3-IDA3LuF.html#343ed7b49d",
        "title": "Bez pośrednio ustawne mieszkanie na sprzedasz dwa pokoje"
    }
]