[
    {
        "address": null,
        "district": "Wola,Warszawa",
        "id": "512531136",
        "link": "https://www.gumtree.pl/a-mieszkania-i-domy-sprzedam-i-kupie/wola/przytulne-mieszkanie-gotowe-do-wprowadzenia/1005125311360910659595209",
        "title": "Przytulne mieszkanie gotowe do wprowadzenia !"
    },
    {
        "address": "Mokotów,Warszawa, Kraszewskiego 13",
        "district": "Mokotów,Warszawa",
        "id": "513599870",
        "latitude": 52.1682715,
        "link": "https://www.gumtree.pl/a-mieszkania-i-domy-sprzedam-i-kupie/mokotow/3-pokojowe-mieszkanie-w-kamienicy/1005135998700911086001309",
        "longitude": 21.0059047,
        "precise": true,
        "title": "3 pokojowe mieszkanie w kamienicy"
    },
    {
        "address": "Ursynów,Warszawa, Nowoursynowska 139 ",
        "district": "Ursynów,Warszawa",
        "id": "513606057",
        "latitude": 52.1504163,
        "link": "https://www.gumtree.pl/a-mieszkania-i-domy-sprzedam-i-kupie/ursynow/ursynow-48-m-+-osiedle-strzezone-bezposrednio/1005136060570911362780809",
        "longitude": 21.059612,
        "precise": true,
        "title": "URSYNÓW – 48 m - osiedle strzeżone – bezpośrednio !!!"
    },
    {
        "address": "Targówek,Warszawa, Skrajna  ",
        "district": "Targówek,Warszawa",
        "id": "513756977",
        "latitude": 52.29476239999999,
        "link": "https://www.gumtree.pl/a-mieszkania-i-domy-sprzedam-i-kupie/targowek/pilnie-2-pokoje-po-remoncie-przy-ul-skrajna-1-grunty-uregulowane-metro/1005137569770910473899909",
        "longitude": 21.0201884,
        "precise": false,
        "title": "PILNIE!!! 2 pokoje po remoncie przy ul Skrajna 1, grunty uregulowane METRO"
    },
    {
        "address": "Wola,Warszawa, Erazma Ciołka 5",
        "district": "Wola,Warszawa",
        "id": "513870142",
        "latitude": 52.2399172,
        "link": "https://www.gumtree.pl/a-mieszkania-i-domy-sprzedam-i-kupie/wola/2-pokoje-40m2-przy-samym-metrze-+-bezposrednio/1005138701420910505078909",
        "longitude": 20.945556,
        "precise": true,
        "title": "2 pokoje 40m2 przy samym Metrze - Bezpośrednio!"
    },
    {
        "address": "Targówek,Warszawa, Radzymin",
        "district": "Targówek,Warszawa",
        "id": "514058321",
        "latitude": 52.2828819,
        "link": "https://www.gumtree.pl/a-mieszkania-i-domy-sprzedam-i-kupie/targowek/radzymin-+sypialnia-warszawy-ul-slowackiego-mieszkanie-2+pokojowe-40-m-1-pietro-+-bezposrednio/1005140583210911303775709",
        "longitude": 21.0654678,
        "precise": false,
        "title": "Radzymin -Sypialnia Warszawy, ul.Słowackiego Mieszkanie 2-pokojowe • 40 m² • 1 piętro - BEZPOŚREDNIO"
    },
    {
        "address": "Śródmieście,Warszawa, Tamka 13A",
        "district": "Śródmieście,Warszawa",
        "id": "514067919",
        "latitude": 52.237828,
        "link": "https://www.gumtree.pl/a-mieszkania-i-domy-sprzedam-i-kupie/srodmiescie/sprzedam-mieszkanie-w-zielonce/1005140679190910658840309",
        "longitude": 21.0278569,
        "precise": true,
        "title": "Sprzedam mieszkanie w Zielonce"
    },
    {
        "address": null,
        "district": "Mokotów,Warszawa",
        "id": "514082367",
        "link": "https://www.gumtree.pl/a-mieszkania-i-domy-sprzedam-i-kupie/mokotow/sprzedam-1-2-udzialu-w-nieruchomosci-warszawa-+-sadyba/1005140823670911163416009",
        "title": "Sprzedam 1/2 udziału w nieruchomości Warszawa - Sadyba"
    },
    {
        "address": "Targówek,Warszawa,  Praga Południe",
        "district": "Targówek,Warszawa",
        "id": "514082724",
        "latitude": 52.2418808,
        "link": "https://www.gumtree.pl/a-mieszkania-i-domy-sprzedam-i-kupie/targowek/sprzedam-2-pokoje-38m2-na-saskiej-kepie/1005140827240910472738509",
        "longitude": 21.0849602,
        "precise": false,
        "title": "sprzedam 2 pokoje, 38m2 na Saskiej Kepie"
    },
    {
        "address": "Targówek,Warszawa, Ogińskiego 1",
        "district": "Targówek,Warszawa",
        "id": "514177079",
        "latitude": 52.2829379,
        "link": "https://www.gumtree.pl/a-mieszkania-i-domy-sprzedam-i-kupie/targowek/bezposrednio-41-m2-2-pokoje-balkon-klimatyzacja-wysoki-standard-brodno-targowek/1005141770790911369044209",
        "longitude": 21.0273675,
        "precise": true,
        "title": "BEZPOŚREDNIO 41 m2, 2 pokoje, balkon, klimatyzacja, wysoki standard BRÓDNO TARGÓWEK"
    }
]