[
    {
        "address": null,
        "district": "Praga Południe,Warszawa",
        "id": "542060249",
        "link": "https://www.gumtree.pl/a-mieszkania-i-domy-sprzedam-i-kupie/praga-poludnie/sprzedam-mieszkanie-2+-pokojowe-w-kameralnym-budynku-na-grochowie/1005420602490910956518709",
        "title": "Sprzedam mieszkanie 2- pokojowe w kameralnym budynku na Grochowie"
    },
    {
        "address": "Praga Północ,Warszawa,  Łochowska 1",
        "district": "Praga Północ,Warszawa",
        "id": "542365751",
        "latitude": 52.2594931,
        "link": "https://www.gumtree.pl/a-mieszkania-i-domy-sprzedam-i-kupie/praga-polnoc/lochowska-2-oddzielne-pokoje-widna-kuchnia-38m-bezposrednio/1005423657510912427828709",
        "longitude": 21.0542632,
        "precise": true,
        "title": "Łochowska, 2 oddzielne pokoje widna kuchnia, 38m, bezpośrednio"
    },
    {
        "address": "Ursynów,Warszawa, Drwalew",
        "district": "Ursynów,Warszawa",
        "id": "542464599",
        "latitude": 51.9004143,
        "link": "https://www.gumtree.pl/a-mieszkania-i-domy-sprzedam-i-kupie/ursynow/bez-posrednikow-mieszkanie-bezczynszowe-55m2-drwalew-40-km-do-centrum-warszawy/1005424645990912434643409",
        "longitude": 21.031440099999998,
        "precise": false,
        "title": "Bez pośredników, mieszkanie bezczynszowe 55m2, Drwalew 40 km do centrum Warszawy"
    },
    {
        "address": "Praga Północ,Warszawa, Siedlecka",
        "district": "Praga Północ,Warszawa",
        "id": "542551164",
        "latitude": 52.259357300000005,
        "link": "https://www.gumtree.pl/a-mieszkania-i-domy-sprzedam-i-kupie/praga-polnoc/sprzedam-2+pokojowe-po-remoncie-praga-pln-w-warszawie/1005425511640910470587509",
        "longitude": 21.0580853,
        "precise": false,
        "title": "Sprzedam  2-pokojowe  po remoncie Praga Płn.  w  WARSZAWIE"
    },
    {
        "address": "Targówek,Warszawa, Toruńskiej 72",
        "district": "Targówek,Warszawa",
        "id": "542611507",
        "latitude": 52.2958499,
        "link": "https://www.gumtree.pl/a-mieszkania-i-domy-sprzedam-i-kupie/targowek/wlasciciel-sprzeda-mieszkanie-38-mk-na-brodnie-w-bardzo-dobrej-lokalizacji/1005426115070912434624209",
        "longitude": 21.024525,
        "precise": true,
        "title": "Właściciel sprzeda mieszkanie 38 mk na Bródnie w bardzo dobrej lokalizacji "
    },
    {
        "address": "Korkowa",
        "district": "Praga Południe,Warszawa",
        "id": "542707481",
        "latitude": 52.239814200000005,
        "link": "https://www.gumtree.pl/a-mieszkania-i-domy-sprzedam-i-kupie/praga-poludnie/sprzedam-mieszkanie-47m2-ul-korkowa/1005427074810912420954209",
        "longitude": 21.1533794,
        "precise": false,
        "title": "Sprzedam mieszkanie 47m2 ul.Korkowa"
    },
    {
        "address": "Mokotów,Warszawa, Bryły",
        "district": "Mokotów,Warszawa",
        "id": "542711062",
        "latitude": 52.1811582,
        "link": "https://www.gumtree.pl/a-mieszkania-i-domy-sprzedam-i-kupie/mokotow/mieszkanie-dwupokojowe-na-sprzedaz/1005427110620910500464209",
        "longitude": 21.0120189,
        "precise": false,
        "title": "Mieszkanie dwupokojowe na sprzedaż "
    },
    {
        "address": "Żoliborz,Warszawa, Piłsudskiego 115 ",
        "district": "Żoliborz,Warszawa",
        "id": "542711664",
        "latitude": 52.2774358,
        "link": "https://www.gumtree.pl/a-mieszkania-i-domy-sprzedam-i-kupie/zoliborz/odstapie-zamienie-na-mniejsze-mieszkanie-tbs-53-m2/1005427116640910629353409",
        "longitude": 21.115453,
        "precise": true,
        "title": "ODSTĄPIE,ZAMIENIĘ NA MNIEJSZE MIESZKANIE TBS 53 M2  "
    },
    {
        "address": "Korkowa",
        "district": "Praga Południe,Warszawa",
        "id": "542733729",
        "latitude": 52.239814200000005,
        "link": "https://www.gumtree.pl/a-mieszkania-i-domy-sprzedam-i-kupie/praga-poludnie/sprzedam-mieszkanie-47m2-ul-korkowa/1005427337290912420954209",
        "longitude": 21.1529794,
        "precise": false,
        "title": "Sprzedam mieszkanie 47m2 ul.Korkowa"
    },
    {
        "address": null,
        "district": "Mokotów,Warszawa",
        "id": "542766680",
        "link": "https://www.gumtree.pl/a-mieszkania-i-domy-sprzedam-i-kupie/mokotow/bezposrednio-niepodleglosci-+-mieszkanie-do-remontu-44-1-m2-200-od-stacji-metra-wilanowska/1005427666800911362000409",
        "title": "BEZPOŚREDNIO Niepodległości !!! - Mieszkanie do remontu 44,1 m2. 200 od stacji metra Wilanowska "
    },
    {
        "address": "Ochota,Warszawa, Grójecka",
        "district": "Ochota,Warszawa",
        "id": "543155757",
        "latitude": 52.21182369999999,
        "link": "https://www.gumtree.pl/a-mieszkania-i-domy-sprzedam-i-kupie/ochota/wynajme-mieszkanie-stara-ochota/1005431557570910656704909",
        "longitude": 20.9767819,
        "precise": false,
        "title": "Wynajme mieszkanie stara ochota"
    },
    {
        "address": null,
        "district": "Targówek,Warszawa",
        "id": "543193955",
        "link": "https://www.gumtree.pl/a-mieszkania-i-domy-sprzedam-i-kupie/targowek/sprzedam-mieszkanie-zamienie-na-dom/1005431939550911220940509",
        "title": "Sprzedam mieszkanie/zamienie na dom"
    },
    {
        "address": "Targówek,Warszawa, ul. Krasnobrodzka",
        "district": "Targówek,Warszawa",
        "id": "543213513",
        "latitude": 52.3004355,
        "link": "https://www.gumtree.pl/a-mieszkania-i-domy-sprzedam-i-kupie/targowek/bezposrednio-3-pokoje-46-m-po-generalnym-remoncie-nowe-targowek/1005432135130910464492009",
        "longitude": 21.0424881,
        "precise": false,
        "title": "Bezpośrednio 3 pokoje 46 m Po generalnym remoncie NOWE Targówek"
    },
    {
        "address": "Ochota,Warszawa, Skierniewice ul. Konarskiego 4",
        "district": "Ochota,Warszawa",
        "id": "543339183",
        "latitude": 52.2372978,
        "link": "https://www.gumtree.pl/a-mieszkania-i-domy-sprzedam-i-kupie/ochota/sprzedam-mieszkanie-58m2/1005433391830910568017509",
        "longitude": 20.9161043,
        "precise": true,
        "title": "Sprzedam mieszkanie 58m2"
    },
    {
        "address": "Ochota,Warszawa, Skierniewice ul. Konarskiego 4",
        "district": "Ochota,Warszawa",
        "id": "543364868",
        "latitude": 52.2372978,
        "link": "https://www.gumtree.pl/a-mieszkania-i-domy-sprzedam-i-kupie/ochota/sprzedam-mieszkanie-58m2/1005433648680910568017509",
        "longitude": 20.9161043,
        "precise": true,
        "title": "Sprzedam mieszkanie 58m2"
    },
    {
        "address": "Ochota,Warszawa, Skierniewice ul. Konarskiego 4",
        "district": "Ochota,Warszawa",
        "id": "543417006",
        "latitude": 52.2372978,
        "link": "https://www.gumtree.pl/a-mieszkania-i-domy-sprzedam-i-kupie/ochota/sprzedam-mieszkanie-58m2/1005434170060910568017509",
        "longitude": 20.9161043,
        "precise": true,
        "title": "Sprzedam mieszkanie 58m2"
    }
]