[
    {
        "address": null,
        "district": "Warszawa, Praga-Północ",
        "id": "533100667",
        "link": "https://www.olx.pl/oferta/mieszkanie-2-pokoje-CID3-IDA4PPR.html#343ed7b49d",
        "title": "mieszkanie 2 pokoje"
    },
    {
        "address": "Warszawa, Targówek, Krasiczyńskiej 3",
        "district": "Warszawa, Targówek",
        "id": "533164876",
        "latitude": 52.294626,
        "link": "https://www.otodom.pl/oferta/brodno-2-pokoje-po-remoncie-blisko-metro-i-park-ID40KCW.html?",
        "longitude": 21.0449249,
        "precise": true,
        "title": "Bródno 2 pokoje po remoncie, blisko metro i park"
    },
    {
        "address": "Warszawa, Wola, ul. Jana Brożka ",
        "district": "Warszawa, Wola",
        "id": "533189887",
        "latitude": 52.2437025,
        "link": "https://www.otodom.pl/oferta/sprzedam-mieszkanie-na-woli-blisko-stacji-metra-ID3F6We.html?",
        "longitude": 20.9423736,
        "precise": false,
        "title": "Sprzedam mieszkanie na Woli, blisko stacji metra!"
    },
    {
        "address": "Warszawa, Wola, ul. Tadeusza Krępowieckiego",
        "district": "Warszawa, Wola",
        "id": "533206114",
        "latitude": 52.2378724,
        "link": "https://www.otodom.pl/oferta/przy-ii-lini-metra-wola-park-krepowieckiego-ID3hyLO.html?",
        "longitude": 20.935065899999998,
        "precise": false,
        "title": "Przy II lini metra - Wola Park, Krępowieckiego"
    },
    {
        "address": "Warszawa, Bemowo, Karabeli ",
        "district": "Warszawa, Bemowo",
        "id": "533274209",
        "latitude": 52.2305693,
        "link": "https://www.olx.pl/oferta/sprzedam-mieszkanie-3-pokoje-jelonki-CID3-IDA5yYW.html#343ed7b49d",
        "longitude": 20.9016163,
        "precise": false,
        "title": "Sprzedam mieszkanie 3 pokoje Jelonki"
    }
]