[
    {
        "address": "Ursynów,Warszawa, Kazury",
        "district": "Ursynów,Warszawa",
        "id": "506703596",
        "latitude": 52.1392046,
        "link": "https://www.gumtree.pl/a-mieszkania-i-domy-sprzedam-i-kupie/ursynow/bezposrednio-2pokojowe-na-kazury-niski-blok-44-90-m-kw/1005067035960912411224909",
        "longitude": 21.0451498,
        "precise": false,
        "title": "Bezpośrednio 2pokojowe na Kazury (niski blok 44,90 m.kw)"
    },
    {
        "address": "Wola,Warszawa, Jana Kazimierza 57",
        "district": "Wola,Warszawa",
        "id": "506749847",
        "latitude": 52.22107459999999,
        "link": "https://www.gumtree.pl/a-mieszkania-i-domy-sprzedam-i-kupie/wola/sprzedam-bezposrednio-2-pokojowe-mieszkanie-38m2-wola/1005067498470911057526509",
        "longitude": 20.9305344,
        "precise": true,
        "title": "Sprzedam bezpośrednio 2 pokojowe Mieszkanie 38m2 Wola "
    },
    {
        "address": "Targówek,Warszawa, Skrajna  ",
        "district": "Targówek,Warszawa",
        "id": "506836189",
        "latitude": 52.29456239999999,
        "link": "https://www.gumtree.pl/a-mieszkania-i-domy-sprzedam-i-kupie/targowek/pilnie-2-pokoje-po-remoncie-przy-ul-skrajna-1-grunty-uregulowane-metro/1005068361890910473899909",
        "longitude": 21.020388399999998,
        "precise": false,
        "title": "PILNIE!!! 2 pokoje po remoncie przy ul Skrajna 1, grunty uregulowane METRO"
    },
    {
        "address": "Targówek,Warszawa, Sieczna 43",
        "district": "Targówek,Warszawa",
        "id": "506982235",
        "latitude": 52.3158719,
        "link": "https://www.gumtree.pl/a-mieszkania-i-domy-sprzedam-i-kupie/targowek/2-pokoje-41m2-os-lewandow-+-okazja-+-bezposrednio/1005069822350910879931509",
        "longitude": 21.0724546,
        "precise": true,
        "title": "2 pokoje 41m2 Os.Lewandów - OKAZJA - BEZPOŚREDNIO"
    }
]