[
    {
        "address": null,
        "district": "Warszawa, Bemowo",
        "id": "516136389",
        "link": "https://www.otodom.pl/oferta/3-pokoje-kedzierskiego-obok-centrum-handl-bemowo-ID3WW4Q.html?",
        "title": "3 pokoje, Kędzierskiego, obok Centrum Handl BEMOWO"
    },
    {
        "address": "Warszawa, Ursynów, ul. Związku Walki Młodych",
        "district": "Warszawa, Ursynów",
        "id": "525639484",
        "latitude": 52.1587502,
        "link": "https://www.otodom.pl/oferta/dwupokojowe-na-ursynowie-ul-z-w-m-blisko-metra-ID3YyUc.html?",
        "longitude": 21.0383478,
        "precise": false,
        "title": "Dwupokojowe na Ursynowie, ul. Z.W.M, blisko metra"
    },
    {
        "address": null,
        "district": "Warszawa, Bemowo",
        "id": "526761334",
        "link": "https://www.olx.pl/oferta/3-pokoje-kedzierskiego-obok-centrum-handl-bemowo-CID3-IDzEeGy.html#343ed7b49d",
        "title": "3 pokoje, Kędzierskiego, obok Centrum Handl BEMOWO"
    },
    {
        "address": "Warszawa, Bielany, Przytyk",
        "district": "Warszawa, Bielany",
        "id": "530431811",
        "latitude": 52.2887538,
        "link": "https://www.olx.pl/oferta/sprzedam-3-pokojowe-mieszkanie-na-bielanach-CID3-IDzTDxN.html#b24cef3d9e;promoted",
        "longitude": 20.937704,
        "precise": false,
        "title": "Sprzedam 3 pokojowe mieszkanie na Bielanach"
    },
    {
        "address": "Warszawa, Bielany, ul. Władysława Broniewskiego",
        "district": "Warszawa, Bielany",
        "id": "530451446",
        "latitude": 52.26849099999999,
        "link": "https://www.otodom.pl/oferta/mieszkanie-dwa-pokoje-42-m2-ul-broniewskiego-ID404p2.html?",
        "longitude": 20.959071599999998,
        "precise": false,
        "title": "Mieszkanie dwa pokoje, 42 m2 ul. Broniewskiego"
    },
    {
        "address": "Warszawa, Praga-Południe, ul. Nasielska",
        "district": "Warszawa, Praga-Południe",
        "id": "530478878",
        "latitude": 52.2486374,
        "link": "https://www.otodom.pl/oferta/tbs-2-pok-kuchnia-45-54-m2-praga-pld-ID404Uc.html?",
        "longitude": 21.099596,
        "precise": false,
        "title": "TBS - 2 pok. + kuchnia; 45,54 m2; Praga Płd."
    },
    {
        "address": "Warszawa, Bemowo, ul. gen. Meriana C. Coopera",
        "district": "Warszawa, Bemowo",
        "id": "530491679",
        "latitude": 52.2365176,
        "link": "https://www.otodom.pl/oferta/bezposrednio-2-pokoje-bemowo-z-garazem-ID405fm.html?",
        "longitude": 20.8940512,
        "precise": false,
        "title": "BEZPOŚREDNIO 2 pokoje Bemowo z garażem"
    },
    {
        "address": "Warszawa, al. Aleja Prymasa Tysiąclecia",
        "district": "Warszawa",
        "id": "530549075",
        "latitude": 52.2360909,
        "link": "https://www.otodom.pl/oferta/bezposrednio-sprzedam-2-pokojowe-mieszkanie-wola-ID4067u.html?",
        "longitude": 20.956772500000003,
        "precise": false,
        "title": "Bezpośrednio Sprzedam 2 pokojowe mieszkanie- Wola"
    },
    {
        "address": null,
        "district": "Warszawa, Praga-Północ",
        "id": "530552872",
        "link": "https://www.otodom.pl/oferta/mieszkanie-161-m-warszawa-ID406eU.html?",
        "title": "Mieszkanie, 161 m², Warszawa"
    },
    {
        "address": "Warszawa, Mokotów, ul. Arbuzowa",
        "district": "Warszawa, Mokotów",
        "id": "530563174",
        "latitude": 52.1702667,
        "link": "https://www.otodom.pl/oferta/sprzedam-mieszkanie-47m-na-os-arbuzowa-do-remontu-ID406ok.html?",
        "longitude": 21.054589500000002,
        "precise": false,
        "title": "Sprzedam mieszkanie 47m na os. Arbuzowa do remontu"
    },
    {
        "address": "Warszawa, Mokotów, Kolberga 38",
        "district": "Warszawa, Mokotów",
        "id": "530591707",
        "latitude": 52.1899069,
        "link": "https://www.olx.pl/oferta/sprzedam-mieszkanie-dwupokojowe-mokotow-ul-kolberga-38m2-CID3-IDzUj8L.html#343ed7b49d",
        "longitude": 21.0091571,
        "precise": true,
        "title": "Sprzedam MIESZKANIE DWUPOKOJOWE Mokotów ul. Kolberga 38m2"
    },
    {
        "address": null,
        "district": "Warszawa, Bielany",
        "id": "530599383",
        "link": "https://www.olx.pl/oferta/mieszkanie-na-sprzedaz-CID3-IDzUl8z.html#343ed7b49d",
        "title": "mieszkanie na sprzedaż"
    },
    {
        "address": "Warszawa, Praga-Południe, Łukowskiej",
        "district": "Warszawa, Praga-Południe",
        "id": "530653522",
        "latitude": 52.237817500000006,
        "link": "https://www.olx.pl/oferta/odstapie-partycypacje-mieszkania-w-systemie-tbs-CID3-IDzUzdM.html#343ed7b49d",
        "longitude": 21.1032284,
        "precise": false,
        "title": "Odstąpię partycypację mieszkania w systemie Tbs"
    },
    {
        "address": "Warszawa, Bemowo, Szeligowska",
        "district": "Warszawa, Bemowo",
        "id": "530715588",
        "latitude": 52.2282015,
        "link": "https://www.olx.pl/oferta/sprzedam-mieszkanie-warszawa-bemowo-ul-szeligowska-CID3-IDzUPmQ.html#343ed7b49d;promoted",
        "longitude": 20.880740999999997,
        "precise": false,
        "title": "Sprzedam Mieszkanie Warszawa Bemowo, ul. Szeligowska"
    },
    {
        "address": "Warszawa, Praga-Południe, Szaserów ",
        "district": "Warszawa, Praga-Południe",
        "id": "530866577",
        "latitude": 52.247468,
        "link": "https://www.olx.pl/oferta/bezposrednio-sprzedam-mieszkanie-dwupokojowe-41-2-m2-CID3-IDzWsE9.html#343ed7b49d",
        "longitude": 21.101971799999998,
        "precise": false,
        "title": "Bezpośrednio sprzedam mieszkanie dwupokojowe 41,2 m2"
    },
    {
        "address": "Warszawa, Targówek, Bolesławickiej",
        "district": "Warszawa, Targówek",
        "id": "530877846",
        "latitude": 52.28674329999999,
        "link": "https://www.olx.pl/oferta/mieszkanie-3-pokoje-53-5m2-przy-parku-brodnowskim-CID3-IDzWwzU.html#343ed7b49d",
        "longitude": 21.029321,
        "precise": false,
        "title": "Mieszkanie 3 pokoje 53,5m2 przy Parku Bródnowskim"
    }
]