[
    {
        "address": "Warszawa, Śródmieście, al. Aleja Jana Pawła II",
        "district": "Warszawa, Śródmieście",
        "id": "535706584",
        "latitude": 52.245633699999985,
        "link": "https://www.otodom.pl/oferta/dwa-pokoje-bezposrednio-rondo-onz-40m2-lux-ID40Yht.html?",
        "longitude": 20.9916026,
        "precise": false,
        "title": "Dwa pokoje Bezpośrednio! Rondo ONZ, 40m2, LUX"
    },
    {
        "address": "Warszawa, Targówek, Chodecka 415",
        "district": "Warszawa, Targówek",
        "id": "536433343",
        "latitude": 52.2923015,
        "link": "https://www.olx.pl/oferta/mieszkanie-48m-warszawa-targowek-brodno-ul-chodecka-415tys-garaz-CID3-IDAiOOH.html#b24cef3d9e",
        "longitude": 21.0416872,
        "precise": true,
        "title": "Mieszkanie 48m² Warszawa Targowek Bródno, ul. Chodecka 415tys +garaż"
    },
    {
        "address": "Warszawa, Wola, Górczewskiej",
        "district": "Warszawa, Wola",
        "id": "544871930",
        "latitude": 52.239221400000005,
        "link": "https://www.olx.pl/oferta/mroczna-42-m2-3-pietro-CID3-IDASe4V.html#b23726229c",
        "longitude": 20.9442896,
        "precise": false,
        "title": "Mroczna 42 m2, 3 piętro"
    },
    {
        "address": "Warszawa, Praga-Południe, Osowska",
        "district": "Warszawa, Praga-Południe",
        "id": "545043856",
        "latitude": 52.2460748,
        "link": "https://www.olx.pl/oferta/odstapie-mieszkanie-tbs-warszawa-praga-poludnie-ul-osowska-CID3-IDASVNV.html#21aaa1c267",
        "longitude": 21.103968000000002,
        "precise": false,
        "title": "Odstąpię mieszkanie TBS Warszawa Praga Południe ul.Osowska"
    },
    {
        "address": null,
        "district": "Warszawa, Bielany",
        "id": "545390450",
        "link": "https://www.otodom.pl/oferta/warszawa-bielany-38m2-3-pokoje-bezposrednio-ID41JUR.html?",
        "title": "Warszawa Bielany, 38m2, 3 pokoje, BEZPOŚREDNIO"
    },
    {
        "address": "Warszawa, Ursynów, Pileckiego ",
        "district": "Warszawa, Ursynów",
        "id": "545475104",
        "latitude": 52.148850700000004,
        "link": "https://www.otodom.pl/oferta/38-m2-warszawa-ul-pileckiego-zarezerwowane-ID41K4f.html?",
        "longitude": 21.035179199999998,
        "precise": false,
        "title": "38 m2 Warszawa,ul.Pileckiego( zarezerwowane)"
    },
    {
        "address": "Warszawa, Praga-Południe, ul. Grenadierów",
        "district": "Warszawa, Praga-Południe",
        "id": "545542104",
        "latitude": 52.2419331,
        "link": "https://www.otodom.pl/oferta/sprzedam-bezposrednio-praga-pld-grenadierow-53m2-ID41KiF.html?",
        "longitude": 21.0825292,
        "precise": false,
        "title": "Sprzedam Bezpośrednio Praga Płd Grenadierów 53m2"
    },
    {
        "address": null,
        "district": "Warszawa, Ursynów",
        "id": "545700284",
        "link": "https://www.olx.pl/oferta/mieszkanie-w-centrum-ursynowa-CID3-IDAWHzu.html#7226bf74b5",
        "title": "Mieszkanie w centrum Ursynowa"
    },
    {
        "address": null,
        "district": "Warszawa, Praga-Południe",
        "id": "545798180",
        "link": "https://www.otodom.pl/oferta/2-pokojowe-mieszkanie-nad-jeziorkiem-balaton-ID41LIB.html?",
        "title": "2-pokojowe mieszkanie nad Jeziorkiem Balaton"
    },
    {
        "address": "Warszawa, Ochota, ul. Władysława Korotyńskiego",
        "district": "Warszawa, Ochota",
        "id": "545911620",
        "latitude": 52.2020784,
        "link": "https://www.otodom.pl/oferta/przytulne-i-funkcjonalne-2-lub-3-pokoje-do-remontu-ID41MvA.html?",
        "longitude": 20.974563,
        "precise": false,
        "title": "Przytulne i funkcjonalne 2 lub 3 pokoje do remontu"
    },
    {
        "address": null,
        "district": "Warszawa, Wola",
        "id": "545951988",
        "link": "https://www.olx.pl/oferta/mieszkanie-bezposrednio-od-wlasciciela-46-m2-warszawa-wola-CID3-IDAVL3e.html#b24cef3d9e",
        "title": "Mieszkanie bezpośrednio od właściciela 46 m2 Warszawa Wola."
    },
    {
        "address": "Warszawa, Wola, ul. Karolkowa",
        "district": "Warszawa, Wola",
        "id": "545967283",
        "latitude": 52.2342296,
        "link": "https://www.otodom.pl/oferta/bezposrednio-od-wlasciciela-46-m2-warszawa-wola-ID41MMg.html?",
        "longitude": 20.977031,
        "precise": false,
        "title": "Bezpośrednio od właściciela 46 m2 Warszawa Wola"
    },
    {
        "address": null,
        "district": "Warszawa, Praga-Południe",
        "id": "546054954",
        "link": "https://www.olx.pl/oferta/mieszkanie-w-kameralnej-czesci-grochowa-blisko-skm-CID3-IDAXbPY.html#343ed7b49d;promoted",
        "title": "Mieszkanie w kameralnej części Grochowa blisko SKM"
    },
    {
        "address": "Warszawa, Wola, Niska",
        "district": "Warszawa, Wola",
        "id": "546146183",
        "latitude": 52.252009799999996,
        "link": "https://www.olx.pl/oferta/bezposrednio-sloneczne-ciche-mieszkanie-muranow-CID3-IDAXzzp.html#343ed7b49d;promoted",
        "longitude": 20.9878613,
        "precise": false,
        "title": "Bezpośrednio. Słoneczne, ciche mieszkanie. Muranów."
    },
    {
        "address": "Warszawa, Mokotów, Czerska ",
        "district": "Warszawa, Mokotów",
        "id": "546235379",
        "latitude": 52.2055359,
        "link": "https://www.olx.pl/oferta/mieszkanie-w-eleganckiej-kamienicy-w-prestizowej-czesci-mokotowa-CID3-IDAXVM3.html#343ed7b49d;promoted",
        "longitude": 21.046280199999998,
        "precise": false,
        "title": "Mieszkanie w eleganckiej kamienicy w prestiżowej części Mokotowa"
    },
    {
        "address": "Warszawa, Praga-Południe, Ostrobramskiej ",
        "district": "Warszawa, Praga-Południe",
        "id": "546254724",
        "latitude": 52.23502159999999,
        "link": "https://www.olx.pl/oferta/mieszkanie-do-sprzedania-CID3-IDAY1O4.html#343ed7b49d;promoted",
        "longitude": 21.1027323,
        "precise": false,
        "title": "Mieszkanie do sprzedania"
    },
    {
        "address": "Warszawa, Praga-Południe, ul. Nasielska",
        "district": "Warszawa, Praga-Południe",
        "id": "546392796",
        "latitude": 52.2476374,
        "link": "https://www.otodom.pl/oferta/funkcjonalne-dwa-pokoje-38-04-m2-praga-poludnie-ID41OD9.html?",
        "longitude": 21.099596,
        "precise": false,
        "title": "Funkcjonalne dwa pokoje 38,04 m2 Praga - Południe"
    },
    {
        "address": "Warszawa, Praga-Południe, Saska Kępa",
        "district": "Warszawa, Praga-Południe",
        "id": "546409691",
        "latitude": 52.2328652,
        "link": "https://www.otodom.pl/oferta/mieszkanie-na-sprzedaz-saska-kepa-ul-miedzynarodo-ID41OGk.html?",
        "longitude": 21.061404699999997,
        "precise": false,
        "title": "Mieszkanie na sprzedaż Saska Kępa ul. Międzynarodo"
    },
    {
        "address": null,
        "district": "Warszawa, Mokotów",
        "id": "546446512",
        "link": "https://www.olx.pl/oferta/sprzedam-bezposrednio-mieszkanie-stegny-2-pokoje-42-5m2-balkon-CID3-IDAYPHq.html#b24cef3d9e",
        "title": "Sprzedam bezpośrednio mieszkanie - Stegny - 2 pokoje - 42.5m2 - Balkon"
    },
    {
        "address": "Warszawa, Praga-Południe, ul. Zawierciańska",
        "district": "Warszawa, Praga-Południe",
        "id": "546575390",
        "latitude": 52.238232700000005,
        "link": "https://www.otodom.pl/oferta/2-pokojowe-goclawek-cicha-okolica-ID41PHR.html?",
        "longitude": 21.1240802,
        "precise": false,
        "title": "2-pokojowe Gocławek cicha okolica"
    },
    {
        "address": "Warszawa, Śródmieście, Łochowska",
        "district": "Warszawa, Śródmieście",
        "id": "546604967",
        "latitude": 52.2600382,
        "link": "https://www.olx.pl/oferta/bezposrednio-sprzedam-mieszkanie-CID3-IDAZuW9.html#b24cef3d9e",
        "longitude": 21.0564539,
        "precise": false,
        "title": "Bezpośrednio sprzedam mieszkanie."
    },
    {
        "address": null,
        "district": "Warszawa, Praga-Południe",
        "id": "546626148",
        "link": "https://www.olx.pl/oferta/na-sprzedaz-piekne-mieszkanie-w-super-okolicy-CID3-IDAZAqM.html#343ed7b49d",
        "title": "Na sprzedaż piękne mieszkanie w super okolicy"
    },
    {
        "address": "Warszawa, Śródmieście, Nubijska",
        "district": "Warszawa, Śródmieście",
        "id": "546919403",
        "latitude": 52.2249048,
        "link": "https://www.olx.pl/oferta/sprzedam-mieszkanie-saska-kepa-nubijska-bezposrednio-CID3-IDB0OIH.html#343ed7b49d",
        "longitude": 21.0703079,
        "precise": false,
        "title": "Sprzedam mieszkanie Saska Kępa Nubijska bezpośrednio"
    },
    {
        "address": "Warszawa, Mokotów, ul. Stefana Batorego",
        "district": "Warszawa, Mokotów",
        "id": "546929437",
        "latitude": 52.211788500000004,
        "link": "https://www.otodom.pl/oferta/mieszkanie-przy-metrze-pole-mok-ul-batorego-ID41QOd.html?",
        "longitude": 21.0095384,
        "precise": false,
        "title": "Mieszkanie przy Metrze Pole Mok. Ul Batorego"
    }
]