[
    {
        "address": null,
        "district": "Warszawa, Włochy",
        "id": "456974111",
        "link": "https://www.otodom.pl/oferta/mieszkanie-57-m2-6500-m2-ID3FOk0.html?",
        "title": "MIESZKANIE 57 m2 - 6500 m2"
    },
    {
        "address": "Warszawa, Praga-Południe, Szaserów",
        "district": "Warszawa, Praga-Południe",
        "id": "525306091",
        "latitude": 52.247468,
        "link": "https://www.olx.pl/oferta/praga-poludnie-sprzedam-mieszkanie-ul-szaserow-CID3-IDzy86T.html#343ed7b49d;promoted",
        "longitude": 21.101771799999998,
        "precise": false,
        "title": "Praga - Południe / Sprzedam mieszkanie / ul. Szaserów"
    },
    {
        "address": "Warszawa, Praga-Południe, Ostrobramska ",
        "district": "Warszawa, Praga-Południe",
        "id": "530923742",
        "latitude": 52.23462159999999,
        "link": "https://www.otodom.pl/oferta/przytulne-mieszkanie-praga-poludnie-ID3G6fV.html?",
        "longitude": 21.1033323,
        "precise": false,
        "title": "Przytulne mieszkanie Praga Poludnie"
    },
    {
        "address": null,
        "district": "Warszawa, Ochota",
        "id": "530923898",
        "link": "https://www.olx.pl/oferta/mieszkanie-2-pokojowe-na-starej-ochocie-CID3-IDzWHyG.html#b24cef3d9e",
        "title": "Mieszkanie 2-pokojowe na Starej Ochocie"
    },
    {
        "address": "Warszawa, Targówek, Janinòwka 7",
        "district": "Warszawa, Targówek",
        "id": "531037563",
        "latitude": 52.2719797,
        "link": "https://www.olx.pl/oferta/mieszkanie-na-targowku-2pokoje-51m2-CID3-IDzVb7Z.html#343ed7b49d;promoted",
        "longitude": 21.0619763,
        "precise": true,
        "title": "Mieszkanie na Targówku 2pokoje 51m2"
    },
    {
        "address": "Warszawa, Ochota, ul. Wiślicka",
        "district": "Warszawa, Ochota",
        "id": "531114287",
        "latitude": 52.2040058,
        "link": "https://www.otodom.pl/oferta/przestronne-mieszkanie-3-pokojowe-na-ochocie-ID40ibS.html?",
        "longitude": 20.9787132,
        "precise": false,
        "title": "Przestronne Mieszkanie 3 pokojowe na Ochocie"
    },
    {
        "address": "Warszawa, Praga-Południe, Umińskiego ",
        "district": "Warszawa, Praga-Południe",
        "id": "531123832",
        "latitude": 52.2265688,
        "link": "https://www.otodom.pl/oferta/bezposrednio-goclaw-2-pokoje-49-23m2-ID40ikY.html?",
        "longitude": 21.099905699999997,
        "precise": false,
        "title": "Bezpośrednio Gocław 2 pokoje, 49,23m2"
    },
    {
        "address": "Warszawa, Mokotów, ul. Aleksandra Gierymskiego",
        "district": "Warszawa, Mokotów",
        "id": "531130285",
        "latitude": 52.199169399999995,
        "link": "https://www.otodom.pl/oferta/3-pokojowe-mieszkanie-polozone-na-dolnym-mokotowie-ID403E4.html?",
        "longitude": 21.0367133,
        "precise": false,
        "title": "3 pokojowe mieszkanie położone na Dolnym Mokotowie"
    },
    {
        "address": null,
        "district": "Warszawa, Targówek",
        "id": "531142756",
        "link": "https://www.olx.pl/oferta/mieszkanie-2-pok-51-m2-warszawska-nowy-dwor-mazowiecki-CID3-IDzVCuE.html#343ed7b49d",
        "title": "Mieszkanie 2 pok. 51 m2, Warszawska, Nowy Dwór Mazowiecki"
    },
    {
        "address": "Warszawa, Mokotów, Niegocińskiej",
        "district": "Warszawa, Mokotów",
        "id": "531221163",
        "latitude": 52.175848099999996,
        "link": "https://www.olx.pl/oferta/3-pokoje-mokotow-CID3-IDzVVTh.html#343ed7b49d",
        "longitude": 21.0090321,
        "precise": false,
        "title": "3 pokoje - Mokotów"
    },
    {
        "address": "Warszawa, Targówek, Turmoncka ",
        "district": "Warszawa, Targówek",
        "id": "531228065",
        "latitude": 52.29805140000001,
        "link": "https://www.olx.pl/oferta/zadbane-3-pokojowe-mieszkanie-47m2-ul-turmoncka-brodno-CID3-IDzVYGB.html#343ed7b49d",
        "longitude": 21.035953399999997,
        "precise": false,
        "title": "Zadbane 3 pokojowe mieszkanie 47m2 , ul. Turmoncka - Bródno"
    },
    {
        "address": null,
        "district": "Warszawa, Targówek",
        "id": "531273095",
        "link": "https://www.olx.pl/oferta/sprzedam-bezposrednio-41-5m2-2-pokoje-brodno-targowek-CID3-IDzXaoT.html#343ed7b49d",
        "title": "Sprzedam BEZPOŚREDNIO 41,5m2, 2 pokoje, Bródno, Targowek"
    },
    {
        "address": "Warszawa, Praga-Południe, ul. Grochowska",
        "district": "Warszawa, Praga-Południe",
        "id": "531285518",
        "latitude": 52.2458097,
        "link": "https://www.otodom.pl/oferta/3-pokoje-przy-rondo-wiatraczna-super-widok-ID40k8g.html?",
        "longitude": 21.0897778,
        "precise": false,
        "title": "3 pokoje przy Rondo Wiatraczna - super widok!"
    },
    {
        "address": "Warszawa, Bielany, ul. Hansa Christiana Andersena",
        "district": "Warszawa, Bielany",
        "id": "531299299",
        "latitude": 52.280423699999986,
        "link": "https://www.otodom.pl/oferta/andersena-idealne-pod-4-pokoje-lub-2-kawalerki-ID40m9u.html?",
        "longitude": 20.936670099999997,
        "precise": false,
        "title": "Andersena - Idealne pod 4 pokoje lub 2 kawalerki"
    }
]