[
    {
        "address": "Warszawa, Mokotów, ul. św. Bonifacego",
        "district": "Warszawa, Mokotów",
        "id": "507621189",
        "latitude": 52.183966999999996,
        "link": "https://www.otodom.pl/oferta/bezposrednio-3-pokoje-48m-sadyba-ul-sw-bonifacego-ID3TkiY.html?",
        "longitude": 21.0581769,
        "precise": false,
        "title": "BEZPOŚREDNIO 3-pokoje 48m Sadyba ul. Św.Bonifacego"
    },
    {
        "address": null,
        "district": "Warszawa, Mokotów",
        "id": "520900902",
        "link": "https://www.olx.pl/oferta/mieszkanie-parzniew-49m2-umeblowane-sprzedaz-CID3-IDzfE7s.html#7226bf74b5",
        "title": "Mieszkanie Parzniew 49m2 umeblowane sprzedaż"
    },
    {
        "address": "Warszawa, Mokotów, ul. Marzanny",
        "district": "Warszawa, Mokotów",
        "id": "527774855",
        "latitude": 52.191266000000006,
        "link": "https://www.otodom.pl/oferta/nowoczesne-2-pokoje-na-mokotowie-metro-wierzbno-ID3Zkha.html?",
        "longitude": 21.0039201,
        "precise": false,
        "title": "Nowoczesne 2 pokoje na Mokotowie (Metro Wierzbno)"
    },
    {
        "address": "Warszawa, Mokotów, Św.Bonifacego Sadyba",
        "district": "Warszawa, Mokotów",
        "id": "529890336",
        "latitude": 52.182967,
        "link": "https://www.olx.pl/oferta/bezposrednio-mieszkanie-3-pokoje-48m-warszawa-ul-sw-bonifacego-sadyba-CID3-IDzRmGk.html#b24cef3d9e;promoted",
        "longitude": 21.058576900000002,
        "precise": false,
        "title": "BEZPOŚREDNIO mieszkanie 3-pokoje 48m Warszawa ul. Św.Bonifacego Sadyba"
    },
    {
        "address": "Warszawa, Praga-Południe, Łukowskiej",
        "district": "Warszawa, Praga-Południe",
        "id": "533894119",
        "latitude": 52.2385175,
        "link": "https://www.olx.pl/oferta/bezposrednio-dwa-pokoje-praga-poludnie-CID3-IDA8aft.html#343ed7b49d",
        "longitude": 21.1035284,
        "precise": false,
        "title": "bezpośrednio dwa pokoje praga południe"
    },
    {
        "address": "Warszawa, Bielany, ul. Władysława Broniewskiego",
        "district": "Warszawa, Bielany",
        "id": "534067642",
        "latitude": 52.26819099999999,
        "link": "https://www.otodom.pl/oferta/41-5-m2-2-pokoje-broniewskiego-ID40PZJ.html?",
        "longitude": 20.959171599999998,
        "precise": false,
        "title": "41,5 m2, 2 pokoje, Broniewskiego"
    },
    {
        "address": null,
        "district": "Warszawa, Wola",
        "id": "534110746",
        "link": "https://www.otodom.pl/oferta/warszawa-mlynow-wola-3-pokoje-49-m2-ID40QeB.html?",
        "title": "Warszawa Młynów (Wola), 3 pokoje, 49 m2"
    },
    {
        "address": null,
        "district": "Warszawa, Targówek",
        "id": "534167143",
        "link": "https://www.olx.pl/oferta/sprzedam-mieszkanie-38m2-2-pokoje-obok-stacji-metra-brodno-CID3-IDA9jh5.html#b24cef3d9e;promoted",
        "title": "sprzedam mieszkanie 38m2, 2 pokoje, obok stacji metra \"Bródno\""
    },
    {
        "address": "Warszawa, Wola, Leonarda 14",
        "district": "Warszawa, Wola",
        "id": "534253196",
        "latitude": 52.2402589,
        "link": "https://www.otodom.pl/oferta/kamienica-34-r-wola-3-m-wys-2-pok-po-remoncie-ID40QVK.html?",
        "longitude": 20.967948,
        "precise": true,
        "title": "Kamienica 34 r., Wola, 3 m wys. 2 pok. po remoncie"
    },
    {
        "address": null,
        "district": "Warszawa, Ochota",
        "id": "534341536",
        "link": "https://www.olx.pl/oferta/sprzedam-mieszkanie-ochota-46-m2-CID3-IDAa2DS.html#b24cef3d9e",
        "title": "Sprzedam mieszkanie Ochota 46 m2"
    },
    {
        "address": "Warszawa, Mokotów, konstancińska 5b",
        "district": "Warszawa, Mokotów",
        "id": "534397329",
        "latitude": 52.186107,
        "link": "https://www.otodom.pl/oferta/sprzedam-mieszkanie-ID40Kdy.html?",
        "longitude": 21.058166,
        "precise": true,
        "title": "sprzedam mieszkanie"
    },
    {
        "address": "Warszawa, Targówek, Kowalskiego 3",
        "district": "Warszawa, Targówek",
        "id": "534431166",
        "latitude": 52.2943325,
        "link": "https://www.olx.pl/oferta/bardzo-dobra-inwestycja-przy-budowanej-stacji-metra-kondratowicza-CID3-IDAapXv.html#343ed7b49d;promoted",
        "longitude": 21.0505206,
        "precise": true,
        "title": "Bardzo dobra inwestycja przy budowanej stacji metra Kondratowicza"
    },
    {
        "address": null,
        "district": "Warszawa, Mokotów",
        "id": "534437466",
        "link": "https://www.olx.pl/oferta/nowe-mieszkanie-w-bialolece-wykonczone-umeblowane-CID3-IDAarB8.html#343ed7b49d;promoted",
        "title": "nowe mieszkanie w Białołęce, wykończone, umeblowane"
    },
    {
        "address": "Warszawa, Ochota, ul. Wiślicka",
        "district": "Warszawa, Ochota",
        "id": "534443061",
        "latitude": 52.2039058,
        "link": "https://www.otodom.pl/oferta/3-pokojowe-mieszkanie-bezposrednio-ochota-ID40Rwe.html?",
        "longitude": 20.9788132,
        "precise": false,
        "title": "3 pokojowe Mieszkanie BEZPOŚREDNIO Ochota"
    },
    {
        "address": "Warszawa, Praga-Południe, Lubelska",
        "district": "Warszawa, Praga-Południe",
        "id": "534549695",
        "latitude": 52.248259100000006,
        "link": "https://www.olx.pl/oferta/mieszkanie-2-pokoje-lubelska-CID3-IDAaUNh.html#343ed7b49d",
        "longitude": 21.0521397,
        "precise": false,
        "title": "Mieszkanie 2 pokoje Lubelska"
    },
    {
        "address": "Warszawa, Praga-Południe, Łukowskiej",
        "district": "Warszawa, Praga-Południe",
        "id": "534611458",
        "latitude": 52.2377175,
        "link": "https://www.olx.pl/oferta/mieszkanie-tbs-odstapie-udzial-partycypacja-CID3-IDAbaRs.html#343ed7b49d;promoted",
        "longitude": 21.1032284,
        "precise": false,
        "title": "mieszkanie TBS- odstąpię udział-partycypacja"
    },
    {
        "address": "Warszawa, Praga-Południe, Garwolińskiej 9",
        "district": "Warszawa, Praga-Południe",
        "id": "534639960",
        "latitude": 52.24633859999999,
        "link": "https://www.olx.pl/oferta/mieszkanie-46m2-praga-poludnie-CID3-IDAbiha.html#343ed7b49d",
        "longitude": 21.0907875,
        "precise": true,
        "title": "Mieszkanie 46m2 || PRAGA POŁUDNIE"
    },
    {
        "address": "Warszawa, Wola, ul. Jana Olbrachta",
        "district": "Warszawa, Wola",
        "id": "534640452",
        "latitude": 52.2338003,
        "link": "https://www.otodom.pl/oferta/metro-ksiecia-janusza-po-remoncie-bezposrednio-ID40StG.html?",
        "longitude": 20.9305749,
        "precise": false,
        "title": "Metro Księcia Janusza po remoncie, BEZPOŚREDNIO"
    }
]