[
    {
        "address": "Mokotów,Warszawa, Cybernetyki ",
        "district": "Mokotów,Warszawa",
        "id": "523148932",
        "latitude": 52.177020999999996,
        "link": "https://www.gumtree.pl/a-mieszkania-i-domy-sprzedam-i-kupie/mokotow/mokotow-+41-57-m2-+2-pokoje-+2-balkony+garaz-+zakonczenie-bud-10-2019-r-+-pietro-6-6+-bezposrednio/1005231489320910468739609",
        "longitude": 20.9925768,
        "precise": false,
        "title": "MOKOTÓW -41,57 m2 -2 POKOJE -2 BALKONY-GARAŻ -Zakończenie Bud. 10.2019 r. - piętro 6/6- BEZPOŚREDNIO"
    },
    {
        "address": "Ursynów,Warszawa, Nowoursynowska 139 ",
        "district": "Ursynów,Warszawa",
        "id": "523226082",
        "latitude": 52.1504163,
        "link": "https://www.gumtree.pl/a-mieszkania-i-domy-sprzedam-i-kupie/ursynow/ursynow-48-m-+-osiedle-strzezone-bezposrednio/1005232260820911362780809",
        "longitude": 21.059612,
        "precise": true,
        "title": "URSYNÓW – 48 m - osiedle strzeżone – bezpośrednio !!!"
    },
    {
        "address": "Praga Południe,Warszawa,  Saska Kępa",
        "district": "Praga Południe,Warszawa",
        "id": "523394759",
        "latitude": 52.232965199999995,
        "link": "https://www.gumtree.pl/a-mieszkania-i-domy-sprzedam-i-kupie/praga-poludnie/saska-kepa-tu-kazdy-chce-mieszkac-loggia/1005233947590912105990309",
        "longitude": 21.0616047,
        "precise": false,
        "title": "SASKA KĘPA TU KAŻDY CHCĘ MIESZKAĆ LOGGIA"
    },
    {
        "address": "Wola,Warszawa, Karlińskiego ",
        "district": "Wola,Warszawa",
        "id": "523461643",
        "latitude": 52.224027,
        "link": "https://www.gumtree.pl/a-mieszkania-i-domy-sprzedam-i-kupie/wola/2-pokoje-w-apartamentowcu-na-odolanach-9270zl-m2/1005234616430910547339909",
        "longitude": 20.9342461,
        "precise": false,
        "title": "2 pokoje w apartamentowcu na Odolanach, 9270zł/m2"
    }
]