[
    {
        "address": "Warszawa, Bemowo, Coopera",
        "district": "Warszawa, Bemowo",
        "id": "503257086",
        "latitude": 52.2362176,
        "link": "https://www.olx.pl/oferta/mieszkanie-na-bemoweie-w-nowym-budownictwie-40m-2-pokoj-700m-do-metra-CID3-IDy3C9M.html#343ed7b49d",
        "longitude": 20.894251200000003,
        "precise": false,
        "title": "Mieszkanie na Bemoweie w nowym Budownictwie 40m 2-pokoj. 700m do Metra"
    },
    {
        "address": "Warszawa, Praga-Południe, Ostrobramska ",
        "district": "Warszawa, Praga-Południe",
        "id": "530882627",
        "latitude": 52.234721599999986,
        "link": "https://www.olx.pl/oferta/dochod-2700-zl-m-mieszkanie-inwestycja-gotowiec-z-najemcami-okazja-CID3-IDzWvP1.html#b24cef3d9e;promoted",
        "longitude": 21.1031323,
        "precise": false,
        "title": "Dochód 2700 zł /m Mieszkanie inwestycja Gotowiec z Najemcami OKAZJA!"
    },
    {
        "address": null,
        "district": "Warszawa, Ochota",
        "id": "530984807",
        "link": "https://www.olx.pl/oferta/sprzedam-mieszkanie-47-5m2-garbatka-jastrzebiec-bezposrednio-CID3-IDzWXp5.html#343ed7b49d",
        "title": "Sprzedam mieszkanie 47,5m2 Garbatka / Jastrzębiec bezpośrednio"
    },
    {
        "address": "Warszawa, Praga-Południe, Rozłucka ",
        "district": "Warszawa, Praga-Południe",
        "id": "533475107",
        "latitude": 52.238784999999986,
        "link": "https://www.olx.pl/oferta/bezposrednio-sprzedam-mieszkanie-po-remoncie-ul-rozlucka-rog-kinowej-CID3-IDA6pfd.html#b24cef3d9e;promoted",
        "longitude": 21.0786877,
        "precise": false,
        "title": "Bezpośrednio Sprzedam Mieszkanie po remoncie Ul Rozłucka róg Kinowej"
    },
    {
        "address": "Warszawa, Bemowo, Szareckiego",
        "district": "Warszawa, Bemowo",
        "id": "533519856",
        "latitude": 52.2536043,
        "link": "https://www.olx.pl/oferta/dwa-pokoje-na-bemowie-lotnisku-CID3-IDA6ASY.html#b24cef3d9e",
        "longitude": 20.9222867,
        "precise": false,
        "title": "Dwa pokoje na Bemowie Lotnisku"
    },
    {
        "address": "Warszawa, Mokotów, ul. Neseberska",
        "district": "Warszawa, Mokotów",
        "id": "533522002",
        "latitude": 52.184675399999996,
        "link": "https://www.otodom.pl/oferta/mieszkanie-na-sprzedaz-warszawa-mokotow-stegny-ID40MIN.html?",
        "longitude": 21.0487843,
        "precise": false,
        "title": "Mieszkanie na Sprzedaż, Warszawa, Mokotów, Stegny"
    },
    {
        "address": "Warszawa, Bielany, ul. Rudzka",
        "district": "Warszawa, Bielany",
        "id": "533741123",
        "latitude": 52.2792213,
        "link": "https://www.otodom.pl/oferta/42m2-mickiewicza-etap-ii-skanska-rudzka-cesja-ID40O3I.html?",
        "longitude": 20.971216700000003,
        "precise": false,
        "title": "42m2, Mickiewicza etap II, Skanska, Rudzka, cesja"
    },
    {
        "address": null,
        "district": "Warszawa, Targówek",
        "id": "533753773",
        "link": "https://www.olx.pl/oferta/sprzedam-mieszkanie-41-5m2-na-brodnie-CID3-IDA7zJP.html#343ed7b49d",
        "title": "Sprzedam mieszkanie 41.5m2 na Bródnie"
    },
    {
        "address": "Warszawa, Wola, Jana Kazimierza 62A",
        "district": "Warszawa, Wola",
        "id": "533763658",
        "latitude": 52.222002,
        "link": "https://www.otodom.pl/oferta/wola-super-2-pok-ostatnie-pietro-duzy-balkon-ID40Oen.html?",
        "longitude": 20.9336785,
        "precise": true,
        "title": "Wola, super 2 pok., ostatnie piętro, duży balkon"
    },
    {
        "address": "Warszawa, Wola, ul. Erazma Ciołka",
        "district": "Warszawa, Wola",
        "id": "533790679",
        "latitude": 52.2431938,
        "link": "https://www.otodom.pl/oferta/2-pokoje-38m2-budynek-z-cegly-1-min-do-metra-ID40OlU.html?",
        "longitude": 20.9446318,
        "precise": false,
        "title": "2 pokoje, 38m2, budynek z cegły, 1 min do METRA!"
    },
    {
        "address": "Warszawa, Targówek, Bródno",
        "district": "Warszawa, Targówek",
        "id": "533816460",
        "latitude": 52.28753850000001,
        "link": "https://www.otodom.pl/oferta/mieszkanie-na-sprzedaz-warszawa-brodno-ID40Owt.html?",
        "longitude": 21.0311044,
        "precise": false,
        "title": "mieszkanie na sprzedaż, Warszawa, Bródno"
    },
    {
        "address": "Warszawa, Targówek, ul. Aleksandra Gajkowicza",
        "district": "Warszawa, Targówek",
        "id": "533836908",
        "latitude": 52.2748112,
        "link": "https://www.otodom.pl/oferta/3-pokojowe-blisko-stacji-metra-ID40OEp.html?",
        "longitude": 21.0594377,
        "precise": false,
        "title": "3 pokojowe, blisko stacji metra"
    },
    {
        "address": null,
        "district": "Warszawa",
        "id": "533897819",
        "link": "https://www.otodom.pl/oferta/bezposrednio-piekne-2-pok-warszawa-piaseczno-ID40P0l.html?",
        "title": "BEZPOŚREDNIO piękne 2 pok Warszawa/Piaseczno"
    }
]