[
    {
        "address": "Żoliborz,Warszawa, Elbląska",
        "district": "Żoliborz,Warszawa",
        "id": "540078858",
        "latitude": 52.2616318,
        "link": "https://www.gumtree.pl/a-mieszkania-i-domy-sprzedam-i-kupie/zoliborz/zoliborz-elblaska/1005400788580910483692609",
        "longitude": 20.962483000000002,
        "precise": false,
        "title": "Żoliborz Elbląska"
    },
    {
        "address": "Targówek,Warszawa, Wyszogrodzka",
        "district": "Targówek,Warszawa",
        "id": "540189041",
        "latitude": 52.2893531,
        "link": "https://www.gumtree.pl/a-mieszkania-i-domy-sprzedam-i-kupie/targowek/targowek-+-ul-wyszogrodzka-metro-3-pok-balkon-park-po-remoncie-+397-tys/1005401890410910944401209",
        "longitude": 21.036201799999997,
        "precise": false,
        "title": "Targówek - ul. Wyszogrodzka, METRO! 3 pok., balkon, PARK, PO REMONCIE!!!-397 tys."
    },
    {
        "address": "Praga Południe,Warszawa, Majdańska 26",
        "district": "Praga Południe,Warszawa",
        "id": "540206360",
        "latitude": 52.24148479999999,
        "link": "https://www.gumtree.pl/a-mieszkania-i-domy-sprzedam-i-kupie/praga-poludnie/ciche-blisko-ronda-wiatraczna-ul-majdanska-2-pokoje-42m2/1005402063600911423684009",
        "longitude": 21.0904172,
        "precise": true,
        "title": "Ciche blisko Ronda Wiatraczna ul. Majdańska, 2 pokoje, 42m2"
    },
    {
        "address": "Mokotów,Warszawa, Cybernetyki ",
        "district": "Mokotów,Warszawa",
        "id": "540308657",
        "latitude": 52.177420999999995,
        "link": "https://www.gumtree.pl/a-mieszkania-i-domy-sprzedam-i-kupie/mokotow/mokotow-+41-57-m2-+2-pokoje-+2-balkony+garaz-+zakonczenie-bud-10-2019-r-+-pietro-6-6+-0-prowizji/1005403086570910468739609",
        "longitude": 20.992976799999997,
        "precise": false,
        "title": "MOKOTÓW -41,57 m2 -2 POKOJE -2 BALKONY-GARAŻ -Zakończenie Bud. 10.2019 r. - piętro 6/6- 0% PROWIZJI"
    }
]