[
    {
        "address": "Mokotów,Warszawa, Wołoskiej",
        "district": "Mokotów,Warszawa",
        "id": "509844642",
        "latitude": 52.190891900000004,
        "link": "https://www.gumtree.pl/a-mieszkania-i-domy-sprzedam-i-kupie/mokotow/nowoczesne-2-pokoje-na-mokotowie-metro-wierzbno/1005098446420912412447309",
        "longitude": 21.002090499999998,
        "precise": false,
        "title": "Nowoczesne 2 pokoje na Mokotowie (Metro Wierzbno)"
    },
    {
        "address": null,
        "district": "Ochota,Warszawa",
        "id": "510955034",
        "link": "https://www.gumtree.pl/a-mieszkania-i-domy-sprzedam-i-kupie/ochota/sprzedam-mieszkanie/1005109550340910719791509",
        "title": "sprzedam mieszkanie"
    },
    {
        "address": "Targówek,Warszawa, Juliusza Słowackiego Balkon",
        "district": "Targówek,Warszawa",
        "id": "511380655",
        "latitude": 52.2823819,
        "link": "https://www.gumtree.pl/a-mieszkania-i-domy-sprzedam-i-kupie/targowek/radzymin-+sypialnia-warszawy-ul-slowackiego-mieszkanie-2+pokojowe-40-m-1-pietro-+-bezposrednio/1005113806550911303775709",
        "longitude": 21.0658678,
        "precise": false,
        "title": "Radzymin -Sypialnia Warszawy, ul.Słowackiego Mieszkanie 2-pokojowe • 40 m² • 1 piętro - BEZPOŚREDNIO"
    },
    {
        "address": "Targówek,Warszawa, Suwalska 8 ",
        "district": "Targówek,Warszawa",
        "id": "511480540",
        "latitude": 52.295307,
        "link": "https://www.gumtree.pl/a-mieszkania-i-domy-sprzedam-i-kupie/targowek/stacja-metra-brodno-trzy-pokoje/1005114805400911542025109",
        "longitude": 21.02706,
        "precise": true,
        "title": "*STACJA METRA \"BRÓDNO\"**TRZY POKOJE"
    },
    {
        "address": "Mokotów,Warszawa,  ul.Rzymowskiego",
        "district": "Mokotów,Warszawa",
        "id": "511562754",
        "latitude": 52.170954800000004,
        "link": "https://www.gumtree.pl/a-mieszkania-i-domy-sprzedam-i-kupie/mokotow/sloneczne-ciche-po-kompleksowym-remoncie-przy-galerii-mokotow/1005115627540912123364609",
        "longitude": 21.0087101,
        "precise": false,
        "title": "Słoneczne, ciche, po kompleksowym remoncie przy Galerii Mokotów"
    },
    {
        "address": "Mokotów,Warszawa, Zdziechowskiego",
        "district": "Mokotów,Warszawa",
        "id": "511697292",
        "latitude": 52.18517099999999,
        "link": "https://www.gumtree.pl/a-mieszkania-i-domy-sprzedam-i-kupie/mokotow/sprzedam-cesje-mieszkania-w-doskonalej-lokalizacji-na-mokotowie/1005116972920910480341109",
        "longitude": 21.0127835,
        "precise": false,
        "title": "Sprzedam cesję mieszkania w doskonałej lokalizacji na Mokotowie"
    },
    {
        "address": "Bielany,Warszawa, Rudnickiego 4 ",
        "district": "Bielany,Warszawa",
        "id": "511871213",
        "latitude": 52.26563950000001,
        "link": "https://www.gumtree.pl/a-mieszkania-i-domy-sprzedam-i-kupie/bielany/odstapie-partycypacje-w-tbs/1005118712130910501759909",
        "longitude": 20.9468044,
        "precise": true,
        "title": "Odstąpię partycypację w TBS"
    },
    {
        "address": "Targówek,Warszawa, Skrajna  ",
        "district": "Targówek,Warszawa",
        "id": "511946333",
        "latitude": 52.295062399999985,
        "link": "https://www.gumtree.pl/a-mieszkania-i-domy-sprzedam-i-kupie/targowek/pilnie-2-pokoje-po-remoncie-przy-ul-skrajna-1-grunty-uregulowane-metro/1005119463330910473899909",
        "longitude": 21.0202884,
        "precise": false,
        "title": "PILNIE!!! 2 pokoje po remoncie przy ul Skrajna 1, grunty uregulowane METRO"
    },
    {
        "address": "Praga Południe,Warszawa, Arabskiej ",
        "district": "Praga Południe,Warszawa",
        "id": "512041063",
        "latitude": 52.223415800000005,
        "link": "https://www.gumtree.pl/a-mieszkania-i-domy-sprzedam-i-kupie/praga-poludnie/sprzedam-bezposrednio-mieszkanie-38m2-2-pokojowe-saska-kepa/1005120410630910472738509",
        "longitude": 21.069687000000002,
        "precise": false,
        "title": "Sprzedam bezpośrednio mieszkanie 38m2, 2 pokojowe Saska Kępa"
    },
    {
        "address": "Ochota,Warszawa, ul. Pruszkowska 3/2",
        "district": "Ochota,Warszawa",
        "id": "512512028",
        "latitude": 52.2009572,
        "link": "https://www.gumtree.pl/a-mieszkania-i-domy-sprzedam-i-kupie/ochota/sprzedam-mieszkanie-ochota-46-m2/1005125120280910517614209",
        "longitude": 20.9833916,
        "precise": true,
        "title": "Sprzedam mieszkanie Ochota 46 m2"
    },
    {
        "address": "Mokotów,Warszawa, Maklakiewicza 13 ",
        "district": "Mokotów,Warszawa",
        "id": "512796675",
        "latitude": 52.19198710000001,
        "link": "https://www.gumtree.pl/a-mieszkania-i-domy-sprzedam-i-kupie/mokotow/sprzedam-mieszkanie-swiezo-po-remoncie-warszawa-wygledow-maklakiewicza-13/1005127966750910522302809",
        "longitude": 20.9925111,
        "precise": true,
        "title": "Sprzedam mieszkanie świeżo po remoncie, Warszawa wyględów, Maklakiewicza 13"
    },
    {
        "address": "Targówek,Warszawa, Skarbka z Gór   Polska",
        "district": "Targówek,Warszawa",
        "id": "512819146",
        "latitude": 52.3179627,
        "link": "https://www.gumtree.pl/a-mieszkania-i-domy-sprzedam-i-kupie/targowek/sprzedam-mieszkanie-48-6-m2/1005128191460910665536809",
        "longitude": 21.0591052,
        "precise": false,
        "title": "Sprzedam Mieszkanie 48,6 m2"
    },
    {
        "address": "Wola,Warszawa, Stefanówka ul. Złota 2",
        "district": "Wola,Warszawa",
        "id": "513470400",
        "latitude": 52.2327834,
        "link": "https://www.gumtree.pl/a-mieszkania-i-domy-sprzedam-i-kupie/wola/metro-ksiecia-janusza-po-remoncie-bezposrednio/1005134704000910526791809",
        "longitude": 21.0123648,
        "precise": true,
        "title": "Metro Księcia Janusza po remoncie, BEZPOŚREDNIO"
    },
    {
        "address": "Bemowo,Warszawa, PełczyńskiegoŚwietna ",
        "district": "Bemowo,Warszawa",
        "id": "513599407",
        "latitude": 52.241106699999996,
        "link": "https://www.gumtree.pl/a-mieszkania-i-domy-sprzedam-i-kupie/bemowo/odstapie-partycypacje-mieszkanie-tbs-bemowo-2p-44m2/1005135994070912414887809",
        "longitude": 20.9117297,
        "precise": false,
        "title": "Odstąpię partycypację mieszkanie TBS BEMOWO 2p. 44m2 "
    }
]