[
    {
        "address": "Warszawa, Bielany, Marymoncka 143",
        "district": "Warszawa, Bielany",
        "id": "543189617",
        "latitude": 52.2951071,
        "link": "https://www.otodom.pl/oferta/swietne-mieszkanie-dwupokojowe-na-bielanach-metro-ID41yFf.html?",
        "longitude": 20.943926,
        "precise": true,
        "title": "Świetne mieszkanie dwupokojowe na Bielanach METRO"
    },
    {
        "address": "Warszawa, Mokotów, Korczynska\r",
        "district": "Warszawa, Mokotów",
        "id": "543210776",
        "latitude": 52.190575700000004,
        "link": "https://www.olx.pl/oferta/warszawa-sadyba-CID3-IDALfV8.html#343ed7b49d;promoted",
        "longitude": 21.0513708,
        "precise": false,
        "title": "Warszawa Sadyba"
    },
    {
        "address": null,
        "district": "Warszawa, Praga-Południe",
        "id": "543213492",
        "link": "https://www.olx.pl/oferta/mieszkanie-3-pokojowe-CID3-IDALgDV.html#343ed7b49d",
        "title": "Mieszkanie 3 pokojowe"
    },
    {
        "address": "Warszawa, Praga-Południe, ul. Tarnowiecka",
        "district": "Warszawa, Praga-Południe",
        "id": "543235498",
        "latitude": 52.2377428,
        "link": "https://www.otodom.pl/oferta/mieszkanie-na-sprzedaz-warszawa-praga-poludnie-ID417Vt.html?",
        "longitude": 21.1068568,
        "precise": false,
        "title": "Mieszkanie na sprzedaż, Warszawa, Praga Południe"
    },
    {
        "address": "Warszawa, Mokotów, Ksawerów\r",
        "district": "Warszawa, Mokotów",
        "id": "543252041",
        "latitude": 52.1839277,
        "link": "https://www.olx.pl/oferta/ksawerow-65m2-polecam-okazja-dwie-nowe-lazienki-metro-wierzchno-CID3-IDALqFH.html#343ed7b49d",
        "longitude": 21.024104899999998,
        "precise": false,
        "title": "Ksawerów 65m2 Polecam Okazja! Dwie Nowe Łazienki METRO Wierzchno"
    }
]