[
    {
        "address": "Ochota,Warszawa,  ul. Baleya",
        "district": "Ochota,Warszawa",
        "id": "509351292",
        "latitude": 52.19712740000001,
        "link": "https://www.gumtree.pl/a-mieszkania-i-domy-sprzedam-i-kupie/ochota/bezposrednio-mieszkanie-po-remoncie-3-pokojowe-na-ochocie-rakowiec-ul-baleya/1005093512920912411891709",
        "longitude": 20.981022300000003,
        "precise": false,
        "title": "Bezpośrednio mieszkanie po remoncie 3 pokojowe na Ochocie, Rakowiec ul. Baleya"
    },
    {
        "address": null,
        "district": "Targówek,Warszawa",
        "id": "509448290",
        "link": "https://www.gumtree.pl/a-mieszkania-i-domy-sprzedam-i-kupie/targowek/przy-samym-metrze-na-kondratowicza-super-inwestycja/1005094482900911305083809",
        "title": "Przy samym metrze na Kondratowicza, super inwestycja "
    },
    {
        "address": "Mokotów,Warszawa, Flisaków 3",
        "district": "Mokotów,Warszawa",
        "id": "509469026",
        "latitude": 52.3613702,
        "link": "https://www.gumtree.pl/a-mieszkania-i-domy-sprzedam-i-kupie/mokotow/nowe-bialoleka-wyposazone-regaty/1005094690260910474453909",
        "longitude": 21.0403395,
        "precise": true,
        "title": "nowe Białołeka wyposażone Regaty"
    },
    {
        "address": "Bemowo,Warszawa, Oginskiego5m4  ",
        "district": "Bemowo,Warszawa",
        "id": "509562776",
        "latitude": 52.28404,
        "link": "https://www.gumtree.pl/a-mieszkania-i-domy-sprzedam-i-kupie/bemowo/sprzedam-mieszkanie/1005095627760910658543909",
        "longitude": 21.0263883,
        "precise": true,
        "title": "Sprzedam mieszkanie"
    },
    {
        "address": "Praga Północ,Warszawa, Piotra Wysockiego ",
        "district": "Praga Północ,Warszawa",
        "id": "509988447",
        "latitude": 52.2884963,
        "link": "https://www.gumtree.pl/a-mieszkania-i-domy-sprzedam-i-kupie/praga-polnoc/mieszkanie-2-pokoje-42-2-m2-brodno-ul-wysockiego/1005099884470910662334809",
        "longitude": 21.0214648,
        "precise": false,
        "title": "Mieszkanie 2 pokoje 42,2 m2 Bródno ul. Wysockiego"
    },
    {
        "address": "Wiolinowa ",
        "district": "Ursynów,Warszawa",
        "id": "510035079",
        "latitude": 52.159900099999994,
        "link": "https://www.gumtree.pl/a-mieszkania-i-domy-sprzedam-i-kupie/ursynow/mieszkanie-ursynow-ul-wiolinowa/1005100350790912413000709",
        "longitude": 21.028380499999997,
        "precise": false,
        "title": "Mieszkanie Ursynów ul. Wiolinowa "
    },
    {
        "address": "Ursynów,Warszawa, Związku Walki Młodych",
        "district": "Ursynów,Warszawa",
        "id": "510053344",
        "latitude": 52.1577502,
        "link": "https://www.gumtree.pl/a-mieszkania-i-domy-sprzedam-i-kupie/ursynow/dwupokojowe-na-ursynowie-ul-z-w-m-blisko-metra/1005100533440910495851009",
        "longitude": 21.0383478,
        "precise": false,
        "title": "Dwupokojowe na Ursynowie, ul. Z.W.M, blisko metra"
    },
    {
        "address": "Praga Południe,Warszawa, Tarnowiecka 11",
        "district": "Praga Południe,Warszawa",
        "id": "510095520",
        "latitude": 52.23653059999999,
        "link": "https://www.gumtree.pl/a-mieszkania-i-domy-sprzedam-i-kupie/praga-poludnie/mieszkanie-na-sprzedaz-warszawa-praga-poludnie-ul-tarnowiecka/1005100955200910593104409",
        "longitude": 21.1040399,
        "precise": true,
        "title": "MIESZKANIE NA SPRZEDAŻ ,WARSZAWA, PRAGA POŁUDNIE , UL.TARNOWIECKA"
    },
    {
        "address": "Żoliborz,Warszawa, Broniewskiego",
        "district": "Żoliborz,Warszawa",
        "id": "510109009",
        "latitude": 52.2675744,
        "link": "https://www.gumtree.pl/a-mieszkania-i-domy-sprzedam-i-kupie/zoliborz/mieszkanie-na-zielonym-zoliborzu-niedaleko-stacji-metra-marymont/1005101090090910766666909",
        "longitude": 20.964334599999997,
        "precise": false,
        "title": "Mieszkanie na zielonym Żoliborzu niedaleko stacji Metra Marymont."
    },
    {
        "address": "Targówek,Warszawa, Wyszogrodzka-Park Bródnowski",
        "district": "Targówek,Warszawa",
        "id": "510150523",
        "latitude": 52.2911686,
        "link": "https://www.gumtree.pl/a-mieszkania-i-domy-sprzedam-i-kupie/targowek/targowek-ul-wyszogrodzka-3-pok-+46m2-balkon-piwnica-po-remoncie+397tys-zl/1005101505230910944401209",
        "longitude": 21.037321799999997,
        "precise": false,
        "title": "Targówek,ul.Wyszogrodzka,3 pok.-46m2,balkon,piwnica,PO REMONCIE-397tys.zł"
    },
    {
        "address": "Bielany,Warszawa, -",
        "district": "Bielany,Warszawa",
        "id": "510309428",
        "latitude": 52.2938234,
        "link": "https://www.gumtree.pl/a-mieszkania-i-domy-sprzedam-i-kupie/bielany/bielany-2-pokoje-52m2-ul-boguslawskiego/1005103094280911384256709",
        "longitude": 20.929564000000003,
        "precise": false,
        "title": "Bielany, 2 pokoje 52m2 ul. Bogusławskiego"
    },
    {
        "address": null,
        "district": "Praga Południe,Warszawa",
        "id": "510630871",
        "link": "https://www.gumtree.pl/a-mieszkania-i-domy-sprzedam-i-kupie/praga-poludnie/mieszkanie-dwustronne-do-remontu-na-goclawiu/1005106308710910956518709",
        "title": "Mieszkanie dwustronne do remontu na Gocławiu"
    },
    {
        "address": "Ursynów,Warszawa, Nowoursynowska 139 ",
        "district": "Ursynów,Warszawa",
        "id": "510865121",
        "latitude": 52.1504163,
        "link": "https://www.gumtree.pl/a-mieszkania-i-domy-sprzedam-i-kupie/ursynow/ursynow-48-m-+-osiedle-strzezone-bezposrednio/1005108651210911362780809",
        "longitude": 21.059612,
        "precise": true,
        "title": "URSYNÓW – 48 m - osiedle strzeżone – bezpośrednio !!!"
    },
    {
        "address": "Targówek,Warszawa, Sieczna 43",
        "district": "Targówek,Warszawa",
        "id": "510885478",
        "latitude": 52.3158719,
        "link": "https://www.gumtree.pl/a-mieszkania-i-domy-sprzedam-i-kupie/targowek/2-pokoje-41m2-z-2013-os-lewandow-+-bezposrednio/1005108854780910879931509",
        "longitude": 21.0724546,
        "precise": true,
        "title": "2 pokoje 41m2 z 2013 Os.Lewandów - BEZPOŚREDNIO"
    },
    {
        "address": "Targówek,Warszawa, Wyszogrodzka 14",
        "district": "Targówek,Warszawa",
        "id": "510936913",
        "latitude": 52.2869225,
        "link": "https://www.gumtree.pl/a-mieszkania-i-domy-sprzedam-i-kupie/targowek/urocze-mieszkanie-z-klimatem-swiezo-po-remoncie-targowek+blisko-planowanej-ii-linii-metra/1005109369130911424509709",
        "longitude": 21.0380881,
        "precise": true,
        "title": "Urocze mieszkanie z klimatem świeżo po remoncie. Targówek-blisko planowanej II linii Metra."
    }
]