[
    {
        "address": "Warszawa, Mokotów, Gagarina Mokotów 50",
        "district": "Warszawa, Mokotów",
        "id": "528956283",
        "latitude": 52.2067579,
        "link": "https://www.olx.pl/oferta/sprzedam-mieszkanie-ul-gagarina-mokotow-50m2-CID3-IDzNrGX.html#343ed7b49d;promoted",
        "longitude": 21.0329301,
        "precise": true,
        "title": "Sprzedam mieszkanie ul. Gagarina Mokotów 50m2"
    },
    {
        "address": "Warszawa, Ochota, ul. Stefana Baleya",
        "district": "Warszawa, Ochota",
        "id": "538675062",
        "latitude": 52.1970274,
        "link": "https://www.otodom.pl/oferta/38m2-rakowiec-dwa-pokoje-tylko-bezposrednio-ID41cI7.html?",
        "longitude": 20.9802223,
        "precise": false,
        "title": "38m2 Rakowiec, dwa pokoje tylko bezpośrednio"
    },
    {
        "address": "Warszawa, Praga-Północ, Jagiellońskiej ",
        "district": "Warszawa, Praga-Północ",
        "id": "538687509",
        "latitude": 52.2692367,
        "link": "https://www.olx.pl/oferta/mieszkanie-dwupokojowe-przy-rondzie-starzynskiego-CID3-IDAshed.html#343ed7b49d;promoted",
        "longitude": 21.020061100000003,
        "precise": false,
        "title": "Mieszkanie dwupokojowe przy Rondzie Starzyńskiego"
    },
    {
        "address": "Warszawa, Mokotów, ul. Wiktorska",
        "district": "Warszawa, Mokotów",
        "id": "538695412",
        "latitude": 52.1997577,
        "link": "https://www.otodom.pl/oferta/stary-mokotow-przy-stacji-raclawicka-bezposrednio-ID41cQX.html?",
        "longitude": 21.013682900000003,
        "precise": false,
        "title": "Stary Mokotów przy stacji Racławicka -bezpośrednio"
    },
    {
        "address": "Warszawa, Wola, Kosynierów",
        "district": "Warszawa, Wola",
        "id": "538750189",
        "latitude": 52.307386199999996,
        "link": "https://www.olx.pl/oferta/3-pokojowe-mieszkanie-w-rzeszowie-53-7-m-os-tysiaclecia-CID3-IDAsxxb.html#343ed7b49d",
        "longitude": 21.099136599999998,
        "precise": false,
        "title": "3 pokojowe mieszkanie w Rzeszowie, 53,7 m, os. Tysiąclecia"
    },
    {
        "address": null,
        "district": "Warszawa, Mokotów",
        "id": "538755987",
        "link": "https://www.olx.pl/oferta/2-pokoje-w-zielonej-czesci-mokotowa-CID3-IDAsz2H.html#343ed7b49d;promoted",
        "title": "2 pokoje w zielonej części Mokotowa"
    }
]