[
    {
        "address": "Warszawa, Śródmieście, Aluzyjnej ",
        "district": "Warszawa, Śródmieście",
        "id": "538343665",
        "latitude": 52.3467951,
        "link": "https://www.olx.pl/oferta/mieszkanie-2-pokoje-z-aneksem-kuchennym-loggia-CID3-IDAqPMl.html#343ed7b49d",
        "longitude": 20.9436765,
        "precise": false,
        "title": "Mieszkanie 2 pokoje z aneksem kuchennym + loggia"
    },
    {
        "address": "Warszawa, Ochota, SULMIERZYCKIEJ\r",
        "district": "Warszawa, Ochota",
        "id": "538433551",
        "latitude": 52.1926357,
        "link": "https://www.olx.pl/oferta/bezposrednio-ustawne-2-pokoje-ciche-tramwaj-akademie-CID3-IDArda7.html#343ed7b49d",
        "longitude": 20.9712089,
        "precise": false,
        "title": "BEZPOŚREDNIO,ustawne, 2 pokoje, ciche, tramwaj, Akademie"
    },
    {
        "address": "Warszawa, Żoliborz, Elbląska",
        "district": "Warszawa, Żoliborz",
        "id": "538817071",
        "latitude": 52.2616318,
        "link": "https://www.olx.pl/oferta/mieszkanie-na-sprzedaz-bezposrednio-ul-elblaska-warszawa-41m-CID3-IDAsOWW.html#b24cef3d9e",
        "longitude": 20.961783,
        "precise": false,
        "title": "Mieszkanie na sprzedaż bezpośrednio, ul. Elbląska, Warszawa, 41m"
    },
    {
        "address": "Warszawa, Targówek, ul. Poborzańska",
        "district": "Warszawa, Targówek",
        "id": "538833061",
        "latitude": 52.2894662,
        "link": "https://www.otodom.pl/oferta/sprzedam-atrakcyjne-mieszkanie-brodno-blisko-metra-ID41dPG.html?",
        "longitude": 21.026003799999998,
        "precise": false,
        "title": "Sprzedam atrakcyjne mieszkanie Bródno blisko metra"
    },
    {
        "address": "Warszawa, Praga-Południe, ul. Józefa Chłopickiego 51A",
        "district": "Warszawa, Praga-Południe",
        "id": "538853351",
        "latitude": 52.2510506,
        "link": "https://www.otodom.pl/oferta/sprzedam-mieszkanie-ID41dUY.html?",
        "longitude": 21.1093768,
        "precise": true,
        "title": "sprzedam mieszkanie"
    },
    {
        "address": "Warszawa, Wola, ul. Mordechaja Anielewicza",
        "district": "Warszawa, Wola",
        "id": "538859173",
        "latitude": 52.2473434,
        "link": "https://www.otodom.pl/oferta/wola-srodmiescie-3-pokojowe-bezposrednio-ID41dZa.html?",
        "longitude": 20.9883777,
        "precise": false,
        "title": "Wola / Śródmieście. 3 - pokojowe. BEZPOŚREDNIO"
    },
    {
        "address": "Warszawa, Wola, ul. Ożarowska",
        "district": "Warszawa, Wola",
        "id": "538939767",
        "latitude": 52.2471448,
        "link": "https://www.otodom.pl/oferta/rozkladowe-mozliwosc-3pok-kamienica-bezposrednio-ID41eab.html?",
        "longitude": 20.950421799999997,
        "precise": false,
        "title": "Rozkładowe - możliwość 3pok-kamienica-bezpośrednio"
    },
    {
        "address": null,
        "district": "Warszawa, Bielany",
        "id": "538942962",
        "link": "https://www.olx.pl/oferta/tbs-warszawa-bielany-44-56-m2-2-pokoje-kuchnia-CID3-IDAtlGq.html#343ed7b49d",
        "title": "TBS Warszawa Bielany / 44,56 m2 / 2 pokoje + kuchnia /"
    },
    {
        "address": "Warszawa, Mokotów, ul. Cybernetyki",
        "district": "Warszawa, Mokotów",
        "id": "539027785",
        "latitude": 52.176921,
        "link": "https://www.otodom.pl/oferta/mieszkanie-dwupokojowe-na-ul-cybernetyki-ID41eNH.html?",
        "longitude": 20.992776799999998,
        "precise": false,
        "title": "Mieszkanie dwupokojowe na ul.Cybernetyki"
    }
]