[
    {
        "address": "Warszawa, Praga-Południe, ul.Grochowska",
        "district": "Warszawa, Praga-Południe",
        "id": "535797950",
        "latitude": 52.2451097,
        "link": "https://www.otodom.pl/oferta/sprzedam-bezposrednio-mieszkanie-dwupokojowe-ID40WfD.html?",
        "longitude": 21.089277799999998,
        "precise": false,
        "title": "Sprzedam bezpośrednio mieszkanie dwupokojowe"
    },
    {
        "address": "Warszawa, Praga-Południe, ul. Marii Rodziewiczówny",
        "district": "Warszawa, Praga-Południe",
        "id": "536683398",
        "latitude": 52.2349911,
        "link": "https://www.otodom.pl/oferta/nowe-poludniowe-mieszkanie-swietny-rozklad-ID413wq.html?",
        "longitude": 21.1138819,
        "precise": false,
        "title": "Nowe, południowe mieszkanie, świetny rozkład"
    },
    {
        "address": "Warszawa, Wola, ul. Tadeusza Krępowieckiego",
        "district": "Warszawa, Wola",
        "id": "540484144",
        "latitude": 52.2380724,
        "link": "https://www.otodom.pl/oferta/mieszkanie-dwupokojowe-na-sprzedaz-warszawa-wola-ID41kG0.html?",
        "longitude": 20.9346659,
        "precise": false,
        "title": "Mieszkanie dwupokojowe na sprzedaż (Warszawa Wola)"
    },
    {
        "address": "Warszawa, Żoliborz, ul. ks. Teofila Boguckiego",
        "district": "Warszawa, Żoliborz",
        "id": "540496640",
        "latitude": 52.2618982,
        "link": "https://www.otodom.pl/oferta/przytulne-2pok-mieszkanie-na-starym-zoliborzu-39m2-ID41m42.html?",
        "longitude": 20.9842094,
        "precise": false,
        "title": "Przytulne 2pok mieszkanie na Starym Żoliborzu 39m2"
    },
    {
        "address": "Warszawa, Mokotów, ul. Zygmunta Modzelewskiego",
        "district": "Warszawa, Mokotów",
        "id": "540513996",
        "latitude": 52.175850100000005,
        "link": "https://www.otodom.pl/oferta/odnowione-mieszkanie-na-sluzewiu-ID41mcg.html?",
        "longitude": 21.013984800000003,
        "precise": false,
        "title": "Odnowione mieszkanie na Służewiu"
    },
    {
        "address": null,
        "district": "Warszawa, Praga-Południe",
        "id": "540528628",
        "link": "https://www.olx.pl/oferta/dwa-pokoje-z-kuchnia-do-remontu-CID3-IDAA0bG.html#343ed7b49d",
        "title": "Dwa pokoje z kuchnią do Remontu"
    },
    {
        "address": "Warszawa, Targówek, Toruńska",
        "district": "Warszawa, Targówek",
        "id": "540542036",
        "latitude": 52.304573999999995,
        "link": "https://www.olx.pl/oferta/bezposrednio-torunska-47-m2-warszawa-do-remontu-CID3-IDAA3FV.html#343ed7b49d",
        "longitude": 21.050665000000002,
        "precise": false,
        "title": "Bezpośrednio, Toruńska 47 m2 Warszawa do remontu"
    },
    {
        "address": null,
        "district": "Warszawa, Mokotów",
        "id": "540579869",
        "link": "https://www.olx.pl/oferta/ciche-3-pokojowe-sadyba-sprzedam-bezposrednio-CID3-IDAAdv9.html#343ed7b49d",
        "title": "Ciche 3 pokojowe Sadyba SPRZEDAM BEZPOŚREDNIO"
    },
    {
        "address": "Warszawa, Mokotów, Kartaginy 1",
        "district": "Warszawa, Mokotów",
        "id": "540681034",
        "latitude": 52.174971,
        "link": "https://www.olx.pl/oferta/sprzedam-swoje-mieszkanie-48-m-w-warszawie-na-mokotowie-CID3-IDAADPQ.html#343ed7b49d;promoted",
        "longitude": 21.056264,
        "precise": true,
        "title": "sprzedam swoje mieszkanie 48 m w Warszawie na Mokotowie"
    },
    {
        "address": null,
        "district": "Warszawa, Praga-Północ",
        "id": "540724293",
        "link": "https://www.olx.pl/oferta/sprzedam-bezposrednio-mieszkanie-38m-w-poblizu-centrum-koneser-CID3-IDAAP5z.html#343ed7b49d;promoted",
        "title": "Sprzedam bezpośrednio mieszkanie 38m w pobliżu Centrum Koneser"
    },
    {
        "address": "Warszawa, Targówek, Wyszogrodzka 5",
        "district": "Warszawa, Targówek",
        "id": "540762750",
        "latitude": 52.28989,
        "link": "https://www.olx.pl/oferta/mieszkanie-dwupokojowe-54-mkw-przy-parku-brodnowskim-bezposrednio-CID3-IDAAZ5Q.html#343ed7b49d",
        "longitude": 21.0326329,
        "precise": true,
        "title": "Mieszkanie dwupokojowe, 54 mkw, przy Parku Bródnowskim, BEZPOŚREDNIO"
    }
]